SALE TYPE,SOLD DATE,PROPERTY TYPE,ADDRESS,CITY,STATE OR PROVINCE,ZIP OR POSTAL CODE,PRICE,BEDS,BATHS,LOCATION,SQUARE FEET,LOT SIZE,YEAR BUILT,DAYS ON MARKET,$/SQUARE FEET,HOA/MONTH,STATUS,NEXT OPEN HOUSE START TIME,NEXT OPEN HOUSE END TIME,URL (SEE https://www.redfin.com/buy-a-home/comparative-market-analysis FOR INFO ON PRICING),SOURCE,MLS#,FAVORITE,INTERESTED,LATITUDE,LONGITUDE
"In accordance with local MLS rules, some MLS listings are not included in the download"
MLS Listing,,Single Family Residential,2417 Virginia Rd,Los Angeles,CA,90016,1049000,3,2.0,C16 - Mid Los Angeles,1225,6029,1922,1,856,,Active,July-21-2024 02:00 PM,July-21-2024 05:00 PM,https://www.redfin.com/CA/Los-Angeles/2417-Virginia-Rd-90016/home/6892073,CRMLS,BB24143223,N,Y,34.0340766,-118.338571
MLS Listing,,Single Family Residential,8229 Kyle St,Sunland,CA,91040,1049000,4,3.0,659 - Sunland/Tujunga,2063,6284,1953,1,508,,Active,July-19-2024 03:00 PM,July-19-2024 06:00 PM,https://www.redfin.com/CA/Sunland/8229-Kyle-St-91040/home/5508891,CRMLS,BB24141524,N,Y,34.264998,-118.3124691
MLS Listing,,Single Family Residential,15307 Lemay St,Van Nuys,CA,91406,915000,4,3.5,East Van Nuys,2030,1895,2022,1,451,162,Active,July-20-2024 01:00 PM,July-20-2024 04:00 PM,https://www.redfin.com/CA/Van-Nuys/15307-Lemay-St-91406/home/182281590,TheMLS,24-416885,N,Y,34.1922655,-118.4664709
MLS Listing,,Single Family Residential,3617 4th Ave,Los Angeles,CA,90018,999000,4,2.0,PHHT - Park Hills Heights,1916,5500,1912,1,521,,Pre On-Market,,,https://www.redfin.com/CA/Los-Angeles/3617-4th-Ave-90018/home/6888468,CRMLS,BB24124951,N,Y,34.0223449,-118.3216126
MLS Listing,,Townhouse,14435 Benefit St #3,Sherman Oaks,CA,91423,769000,2,2.5,SO - Sherman Oaks,1231,6805,1981,1,625,300,Active,July-21-2024 01:00 PM,July-21-2024 04:00 PM,https://www.redfin.com/CA/Sherman-Oaks/14435-Benefit-St-91423/unit-3/home/4836180,CRMLS,BB24146486,N,Y,34.1490932,-118.4474161
MLS Listing,,Townhouse,630 Cabrillo Villas,Los Angeles,CA,90042,875000,3,3.0,676 - Monterey Hills,1411,88058,1979,1,620,560,Active,July-20-2024 01:00 PM,July-20-2024 04:00 PM,https://www.redfin.com/CA/Los-Angeles/630-Cabrillo-Villas-90042/home/6997620,CRMLS,OC24146523,N,Y,34.0998708,-118.1833113
MLS Listing,,Single Family Residential,1530 S Genesee Ave,Los Angeles,CA,90019,1499000,3,2.0,C16 - Mid Los Angeles,1420,6891,1924,6,1056,,Active,July-20-2024 02:00 PM,July-20-2024 05:00 PM,https://www.redfin.com/CA/Los-Angeles/1530-S-Genesee-Ave-90019/home/6904151,CRMLS,BB24139118,N,Y,34.048137,-118.363943
MLS Listing,,Single Family Residential,1032 S Mesa St,San Pedro,CA,90731,615000,2,1.0,185 - Plaza,624,1448,1918,6,986,,Active,July-19-2024 01:00 PM,July-19-2024 04:00 PM,https://www.redfin.com/CA/San-Pedro/1032-S-Mesa-St-90731/home/7690987,CRMLS,OC24140304,N,Y,33.7344941,-118.2855748
MLS Listing,,Townhouse,2753 Waverly Dr #705,Los Angeles,CA,90039,1129000,2,3.0,671 - Silver Lake,1243,19785,2016,6,908,370,Active,,,https://www.redfin.com/CA/Los-Angeles/2753-Waverly-Dr-90039/unit-705/home/110239017,CRMLS,BB24141442,N,Y,34.1090012,-118.262777
MLS Listing,,Condo/Co-op,1827 S Barrington Ave #103,Los Angeles,CA,90025,825000,3,2.0,WLA - West Los Angeles,1190,17626,1974,6,693,450,Active,,,https://www.redfin.com/CA/Los-Angeles/1827-S-Barrington-Ave-90025/unit-103/home/6758485,CRMLS,SB24141519,N,Y,34.0391948,-118.4525835
MLS Listing,,Condo/Co-op,1660 W 220th St #1,Torrance,CA,90501,699000,3,2.5,135 - South East Torrance - East,1497,16021,1990,7,467,350,Active,,,https://www.redfin.com/CA/Torrance/1660-W-220th-St-90501/unit-1/home/7646497,CRMLS,PW24131988,N,Y,33.8276146,-118.3087534
MLS Listing,,Condo/Co-op,5820 Benner St #102,Los Angeles,CA,90042,579000,2,2.0,632 - Highland Park,753,311665,1979,7,769,444,Active,,,https://www.redfin.com/CA/Los-Angeles/5820-Benner-St-90042/unit-102/home/7087683,CRMLS,PF24137923,N,Y,34.1070433,-118.1899436
MLS Listing,,Condo/Co-op,1310 Armacost Ave #104,Los Angeles,CA,90025,1195000,2,2.0,West L.A.,1740,13768,2005,7,687,650,Active,July-20-2024 02:00 PM,July-20-2024 05:00 PM,https://www.redfin.com/CA/Los-Angeles/1310-Armacost-Ave-90025/unit-104/home/8150956,TheMLS,24-412625,N,Y,34.0446723,-118.4622163
MLS Listing,,Condo/Co-op,8642 Gregory Way #204,Los Angeles,CA,90035,1089000,2,2.0,C19 - Beverly Center-Miracle Mile,1719,17397,1980,9,634,550,Active,,,https://www.redfin.com/CA/Los-Angeles/8642-Gregory-Way-90035/unit-204/home/6813673,CRMLS,BB24134777,N,Y,34.0627089,-118.3799838
MLS Listing,,Single Family Residential,22666 Cavalier St,Woodland Hills,CA,91364,1345000,3,3.0,WHLL - Woodland Hills,2128,6987,1966,9,632,,Active,July-21-2024 02:00 PM,July-21-2024 05:00 PM,https://www.redfin.com/CA/Woodland-Hills/22666-Cavalier-St-91364/home/3565466,CRMLS,BB24140407,N,Y,34.1584144,-118.621807
MLS Listing,,Single Family Residential,601 N Fuller Ave,Los Angeles,CA,90036,2695000,3,3.5,C19 - Beverly Center-Miracle Mile,3258,3980,2015,9,827,,Active,,,https://www.redfin.com/CA/Los-Angeles/601-N-Fuller-Ave-90036/home/7102844,CRMLS,BB24139877,N,Y,34.0820029,-118.3500643
MLS Listing,,Single Family Residential,2827 Budau Ave,Los Angeles,CA,90032,825000,3,2.0,621 - El Sereno,1256,4788,1925,12,657,,Active,,,https://www.redfin.com/CA/Los-Angeles/2827-Budau-Ave-90032/home/6951274,CRMLS,PF24114056,N,Y,34.0780685,-118.1744052
MLS Listing,,Single Family Residential,9369 Hillrose St,Shadow Hills,CA,91040,1795000,4,4.0,672 - Shadow Hills,4044,39359,2007,13,444,,Active,,,https://www.redfin.com/CA/Sunland/9369-Hillrose-St-91040/home/21921338,CRMLS,SR24137964,N,Y,34.2625835,-118.3363693
MLS Listing,,Condo/Co-op,10982 Roebling Ave #552,Los Angeles,CA,90024,629000,1,1.0,Westwood - Century City,663,79818,1973,13,949,440,Active,July-20-2024 01:00 PM,July-20-2024 04:00 PM,https://www.redfin.com/CA/Los-Angeles/10982-Roebling-Ave-90024/unit-552/home/8102422,TheMLS,24-411645,N,Y,34.0647372,-118.449504
MLS Listing,,Single Family Residential,4822 Lockhaven Ave,Los Angeles,CA,90041,995000,3,2.0,618 - Eagle Rock,1645,9722,1961,13,605,,Pre On-Market,July-27-2024 01:00 PM,July-27-2024 04:00 PM,https://www.redfin.com/CA/Los-Angeles/4822-Lockhaven-Ave-90041/home/7177227,CRMLS,BB24134523,N,Y,34.1372381,-118.2235215
MLS Listing,,Condo/Co-op,306 S Miraleste Dr #56,San Pedro,CA,90732,389000,1,1.0,186 - Miraleste Pines,771,311184,1971,13,505,441,Active,,,https://www.redfin.com/CA/San-Pedro/306-S-Miraleste-Dr-90732/unit-56/home/7734795,CRMLS,SB24136533,N,Y,33.741898,-118.3189379
MLS Listing,,Single Family Residential,8930 Haas Ave,Los Angeles,CA,90047,899900,3,2.0,C36 - Metropolitan Southwest,1501,6752,1939,13,600,,Active,,,https://www.redfin.com/CA/Los-Angeles/8930-Haas-Ave-90047/home/7294271,CRMLS,SB24134317,N,Y,33.9553734,-118.3163911
MLS Listing,,Single Family Residential,4752 Ventura Canyon Ave,Sherman Oaks,CA,91423,1699000,4,2.0,Sherman Oaks,1965,7807,1947,13,865,,Active,July-20-2024 02:00 PM,July-20-2024 05:00 PM,https://www.redfin.com/CA/Sherman-Oaks/4752-Ventura-Canyon-Ave-91423/home/5218599,TheMLS,24-409037,N,Y,34.1572471,-118.428731
MLS Listing,,Townhouse,12330 Osborne St #54,Pacoima,CA,91331,475000,2,1.5,PAC - Pacoima,1178,154355,1981,13,403,397,Active,July-20-2024 01:00 PM,July-20-2024 04:00 PM,https://www.redfin.com/CA/Pacoima/12330-Osborne-St-91331/unit-54/home/5486023,CRMLS,BB24134316,N,Y,34.2638485,-118.4014305
MLS Listing,,Single Family Residential,1107 N Rose St,Burbank,CA,91505,1649999,4,2.0,610 - Burbank,1800,6746,1933,13,917,,Active,,,https://www.redfin.com/CA/Burbank/1107-N-Rose-St-91505/home/5380003,CRMLS,BB24120958,N,Y,34.1676867,-118.3542726
MLS Listing,,Single Family Residential,9948 Calvin Ave,Northridge,CA,91324,1450000,4,3.0,NR - Northridge,2340,16902,1960,15,620,,Active,July-21-2024 01:00 PM,July-21-2024 04:00 PM,https://www.redfin.com/CA/Northridge/9948-Calvin-Ave-91324/home/5805618,CRMLS,BB24134838,N,Y,34.2514818,-118.5552183
MLS Listing,,Single Family Residential,10151 Langmuir Ave,Sunland,CA,91040,879000,3,2.0,659 - Sunland/Tujunga,1434,7432,1951,16,613,,Active,,,https://www.redfin.com/CA/Sunland/10151-Langmuir-Ave-91040/home/5522703,CRMLS,BB24132677,N,Y,34.2539023,-118.3089092
MLS Listing,,Condo/Co-op,4733 Elmwood Ave #402,Los Angeles,CA,90004,799000,3,2.0,HPK - Hancock Park,1300,7252,2008,17,615,449,Active,,,https://www.redfin.com/CA/Los-Angeles/4733-Elmwood-Ave-90004/unit-402/home/25717000,CRMLS,PF24132732,N,Y,34.0786036,-118.3103042
MLS Listing,,Condo/Co-op,5349 Newcastle Ave #62,Encino,CA,91316,475000,2,2.0,ENC - Encino,927,60939,1967,20,512,529,Active,,,https://www.redfin.com/CA/Encino/5349-Newcastle-Ave-91316/unit-62/home/4143446,CRMLS,BB24130091,N,Y,34.168225,-118.525134
MLS Listing,,Single Family Residential,19491 Pauma Valley Dr,Porter Ranch,CA,91326,1249000,4,3.0,PORA - Porter Ranch,2303,9977,1978,20,542,,Active,,,https://www.redfin.com/CA/Porter-Ranch/19491-Pauma-Valley-Dr-91326/home/5983862,CRMLS,BB24128800,N,Y,34.2790974,-118.5567034
MLS Listing,,Single Family Residential,4235 W 59th Pl,Los Angeles,CA,90043,1698000,4,3.5,PHHT - Park Hills Heights,3128,5566,2014,21,543,,Active,July-20-2024 01:00 PM,July-20-2024 04:00 PM,https://www.redfin.com/CA/Los-Angeles/4235-W-59th-Pl-90043/home/6447072,CRMLS,SB24131270,N,Y,33.9864219,-118.3492387
MLS Listing,,Single Family Residential,6849 De Celis Pl,Lake Balboa,CA,91406,1050000,4,3.0,699 - Not Defined,2190,10202,1949,21,479,,Active,,,https://www.redfin.com/CA/Van-Nuys/6849-De-Celis-Pl-91406/home/4505860,CRMLS,BB24129851,N,Y,34.1952902,-118.4949497
MLS Listing,,Townhouse,17322 Tramonto Dr #306,Pacific Palisades,CA,90272,2895000,3,3.5,C15 - Pacific Palisades,2810,40446,2020,23,1030,1495,Active,July-20-2024 02:00 PM,July-20-2024 05:00 PM,https://www.redfin.com/CA/Pacific-Palisades/17322-Tramonto-Dr-90272/unit-306/home/169936168,CRMLS,SB24129023,N,Y,34.0405515,-118.5549394
MLS Listing,,Condo/Co-op,1515 S Holt Ave #405,Los Angeles,CA,90035,1099000,3,2.5,C09 - Beverlywood Vicinity,1430,,2021,27,769,568,Active,,,https://www.redfin.com/CA/Los-Angeles/1515-S-Holt-Ave-90035/unit-405/home/177150500,CRMLS,SB24127580,N,Y,34.0509013,-118.3791233
MLS Listing,,Single Family Residential,20448 W Liverpool Way,Porter Ranch,CA,91326,3457000,5,6.0,Porter Ranch,5513,14142,2021,27,627,451,Active,,,https://www.redfin.com/CA/Porter-Ranch/20448-W-Liverpool-Way-91326/home/143518762,TheMLS,24-406419,N,Y,34.285311,-118.580759
MLS Listing,,Single Family Residential,19517 Celtic St,Porter Ranch,CA,91326,1999000,6,6.0,PORA - Porter Ranch,4971,13088,2005,28,402,,Active,,,https://www.redfin.com/CA/Porter-Ranch/19517-Celtic-St-91326/home/5780704,CRMLS,BB24120952,N,Y,34.2718167,-118.5580671
MLS Listing,,Single Family Residential,12225 Terra Bella St,Pacoima,CA,91331,1075000,4,2.0,PAC - Pacoima,1729,10853,1960,28,622,,Active,,,https://www.redfin.com/CA/Pacoima/12225-Terra-Bella-St-91331/home/5475901,CRMLS,BB24124559,N,Y,34.2721359,-118.3997924
MLS Listing,,Single Family Residential,19130 Charles St,Tarzana,CA,91356,1899000,3,2.0,TAR - Tarzana,2721,18187,1955,28,698,,Active,,,https://www.redfin.com/CA/Tarzana/19130-Charles-St-91356/home/4253494,CRMLS,BB24120950,N,Y,34.1572008,-118.5500503
MLS Listing,,Single Family Residential,20516 Aetna St,Woodland Hills,CA,91367,1399000,4,3.0,WHLL - Woodland Hills,1975,9099,1957,29,708,,Active,,,https://www.redfin.com/CA/Woodland-Hills/20516-Aetna-St-91367/home/4016610,CRMLS,BB24125232,N,Y,34.1786468,-118.580208
MLS Listing,,Single Family Residential,14831 S Orchard Ave,Gardena,CA,90247,699980,2,1.0,116 - North Gateway,997,5667,1949,29,702,,Active,,,https://www.redfin.com/CA/Gardena/14831-S-Orchard-Ave-90247/home/7333085,CRMLS,PW24123378,N,Y,33.8973145,-118.2878301
MLS Listing,,Condo/Co-op,514 S Harvard Blvd #205,Los Angeles,CA,90020,549900,2,2.0,C17 - Mid-Wilshire,1074,18024,1961,29,512,425,Active,,,https://www.redfin.com/CA/Los-Angeles/514-S-Harvard-Blvd-90020/unit-205/home/7090088,CRMLS,PW24123895,N,Y,34.0649991,-118.3037782
MLS Listing,,Condo/Co-op,3945 Eagle Rock Blvd #50,Los Angeles,CA,90065,950000,3,3.5,623 - Glassel Park,1550,12934,2015,30,613,398,Active,,,https://www.redfin.com/CA/Los-Angeles/3945-Eagle-Rock-Blvd-90065/unit-50/home/110093048,CRMLS,PF24121884,N,Y,34.1201253,-118.2298778
MLS Listing,,Condo/Co-op,646 Flower Ave #3,Venice,CA,90291,1950000,3,3.5,C11 - Venice,1970,5794,2000,34,990,333,Active,July-21-2024 02:00 PM,July-21-2024 04:00 PM,https://www.redfin.com/CA/Venice/646-Flower-Ave-90291/unit-3/home/8106562,CRMLS,SB24112251,N,Y,33.9987796,-118.4698585
MLS Listing,,Condo/Co-op,7100 Alvern St #320,Los Angeles,CA,90045,755000,2,2.0,C29 - Westchester,1140,29713,2010,34,662,525,Active,July-20-2024 01:00 PM,July-20-2024 04:00 PM,https://www.redfin.com/CA/Los-Angeles/7100-Alvern-St-90045/unit-320/home/40484264,CRMLS,SB24120851,N,Y,33.9749728,-118.3771505
MLS Listing,,Condo/Co-op,6040 Nevada Ave #1,Woodland Hills,CA,91367,315000,1,1.0,WHLL - Woodland Hills,631,631,1965,36,499,499,Active,,,https://www.redfin.com/CA/Woodland-Hills/6040-Nevada-Ave-91367/unit-1/home/79044525,CRMLS,SR24120311,N,Y,34.1805495,-118.6085194
MLS Listing,,Multi-Family (2-4 Unit),826 S Sycamore Ave,Los Angeles,CA,90036,2599000,6,4.0,HPK - Hancock Park,4452,6220,1928,36,584,,Active,July-21-2024 02:00 PM,July-21-2024 05:00 PM,https://www.redfin.com/CA/Los-Angeles/826-S-Sycamore-Ave-90036/home/6912339,CRMLS,BB24119320,N,Y,34.0596912,-118.3436152
MLS Listing,,Townhouse,4640 Glencoe Ave #4,Marina Del Rey,CA,90292,1299000,2,3.0,Marina Del Rey,1646,196139,1977,37,789,805,Active,July-20-2024 02:00 PM,July-20-2024 05:00 PM,https://www.redfin.com/CA/Marina-del-Rey/4640-Glencoe-Ave-90292/unit-4/home/6725686,TheMLS,24-402827,N,Y,33.9856273,-118.432362
MLS Listing,,Condo/Co-op,7305 Milwood Ave #4,Canoga Park,CA,91303,390000,1,1.0,CP - Canoga Park,690,7454,1981,41,565,350,Active,,,https://www.redfin.com/CA/Canoga-Park/7305-Milwood-Ave-91303/unit-4/home/3736768,CRMLS,BB24113679,N,Y,34.2030253,-118.5946205
MLS Listing,,Multi-Family (2-4 Unit),10976 Exposition Blvd,Los Angeles,CA,90064,1150000,4,3.0,WLA - West Los Angeles,1808,4956,1951,41,636,,Active,,,https://www.redfin.com/CA/Los-Angeles/10976-Exposition-Blvd-90064/home/6754179,CRMLS,SB24109822,N,Y,34.0355624,-118.4300489
MLS Listing,,Townhouse,1660 W 220th St #3,Torrance,CA,90501,725000,3,2.5,122 - Harbor Gateway,1460,16021,1990,44,497,350,Active,,,https://www.redfin.com/CA/Torrance/1660-W-220th-St-90501/unit-3/home/7646499,CRMLS,SB24108898,N,Y,33.8276146,-118.3087534
MLS Listing,,Single Family Residential,7545 Belmar Ave,Reseda,CA,91335,1192000,4,3.0,RES - Reseda,2514,4984,2004,46,474,,Active,,,https://www.redfin.com/CA/Reseda/7545-Belmar-Ave-91335/home/8130087,CRMLS,BB24095972,N,Y,34.2078032,-118.5590406
MLS Listing,,Single Family Residential,6010 8th Ave,Los Angeles,CA,90043,749500,4,3.0,PHHT - Park Hills Heights,1257,4802,1936,48,596,,Active,,,https://www.redfin.com/CA/Los-Angeles/6010-8th-Ave-90043/home/6418646,CRMLS,PW24088194,N,Y,33.9850954,-118.3262299
MLS Listing,,Single Family Residential,5113 Inadale Ave,Los Angeles,CA,90043,1049000,2,2.0,PHHT - Park Hills Heights,1279,5071,1939,48,820,,Active,,,https://www.redfin.com/CA/Los-Angeles/5113-Inadale-Ave-90043/home/6866979,CRMLS,SB24100293,N,Y,33.9956302,-118.3507877
MLS Listing,,Single Family Residential,1319 N Occidental Blvd,Los Angeles,CA,90026,1650000,3,2.0,699 - Not Defined,1258,6795,1921,49,1312,,Active,,,https://www.redfin.com/CA/Los-Angeles/1319-N-Occidental-Blvd-90026/home/7059110,CRMLS,BB24107767,N,Y,34.0834707,-118.2711383
MLS Listing,,Condo/Co-op,801 S Grand Ave #1806,Los Angeles,CA,90017,699000,2,2.0,C42 - Downtown L.A.,1200,59001,1985,49,583,1040,Active,July-21-2024 01:00 PM,July-21-2024 04:00 PM,https://www.redfin.com/CA/Los-Angeles/801-S-Grand-Ave-90017/unit-1806/home/8179719,CRMLS,BB24107326,N,Y,34.0457095,-118.2585553
MLS Listing,,Single Family Residential,4250 Michael Ave,Los Angeles,CA,90066,1975000,6,4.0,Marina Del Rey,2352,4903,1941,55,840,,Active,,,https://www.redfin.com/CA/Los-Angeles/4250-Michael-Ave-90066/home/6736150,TheMLS,24-396259,N,Y,33.9900275,-118.4356185
MLS Listing,,Single Family Residential,641 Hill St,Inglewood,CA,90302,765000,2,1.0,101 - North Inglewood,877,4861,1951,57,872,,Active,,,https://www.redfin.com/CA/Inglewood/641-Hill-St-90302/home/6438520,CRMLS,PW24096632,N,Y,33.9735038,-118.3699046
MLS Listing,,Single Family Residential,12510 W Sunset Blvd,Los Angeles,CA,90049,4395000,5,5.0,C06 - Brentwood,4260,8608,1947,59,1032,,Active,July-21-2024 12:00 PM,July-21-2024 03:00 PM,https://www.redfin.com/CA/Los-Angeles/12510-W-Sunset-Blvd-90049/home/6838640,CRMLS,SB24102284,N,Y,34.0574732,-118.4823362
MLS Listing,,Single Family Residential,765 Mccarthy,Los Angeles,CA,90048,2345000,3,2.5,C19 - Beverly Center-Miracle Mile,2629,9218,1933,65,892,,Active,,,https://www.redfin.com/CA/Los-Angeles/765-McCarthy-Vis-90048/home/6915570,CRMLS,SB24097681,N,Y,34.06199718,-118.3673555
MLS Listing,,Single Family Residential,5420 Camellia Ave,North Hollywood,CA,91601,999000,3,3.5,NHO - North Hollywood,1660,1763,2017,77,602,67,Active,,,https://www.redfin.com/CA/North-Hollywood/5420-Camellia-Ave-91601/home/161469445,CRMLS,P1-17481,N,Y,34.1692384,-118.3821007
MLS Listing,,Condo/Co-op,1234 Wilshire Blvd #331,Los Angeles,CA,90017,629999,2,2.0,C42 - Downtown L.A.,960,71352,2006,81,656,796,Active,,,https://www.redfin.com/CA/Los-Angeles/1234-Wilshire-Blvd-90017/unit-331/home/12294349,CRMLS,BB24072864,N,Y,34.053194,-118.265658
MLS Listing,,Condo/Co-op,4528 Colbath Ave #103,Sherman Oaks,CA,91423,599999,1,1.0,SO - Sherman Oaks,925,10580,1978,84,649,470,Active,,,https://www.redfin.com/CA/Sherman-Oaks/4528-Colbath-Ave-91423/unit-103/home/4853944,CRMLS,BB24078497,N,Y,34.153884,-118.4362785
MLS Listing,,Condo/Co-op,321 S San Vicente Blvd #708,Los Angeles,CA,90048,769500,2,2.0,Beverly Center-Miracle Mile,1295,42596,1976,93,594,1140,Active,,,https://www.redfin.com/CA/Los-Angeles/321-S-San-Vicente-Blvd-90048/unit-708/home/6814245,TheMLS,24-381011,N,Y,34.0730973,-118.37796
MLS Listing,,Condo/Co-op,905 New Depot St #12,Los Angeles,CA,90012,575000,3,1.5,671 - Silver Lake,1167,29414,1974,106,493,210,Active,,,https://www.redfin.com/CA/Los-Angeles/905-New-Depot-St-90012/unit-12/home/7054519,CRMLS,PF24063967,N,Y,34.0656737,-118.244944
MLS Listing,,Multi-Family (2-4 Unit),508 N Kingsley Dr,Los Angeles,CA,90004,1099000,4,4.0,C17 - Mid-Wilshire,1656,3546,1922,142,664,,Active,,,https://www.redfin.com/CA/Los-Angeles/508-N-Kingsley-Dr-90004/home/7098544,CRMLS,PW24039449,N,Y,34.0802503,-118.303283
MLS Listing,,Vacant Land,561 E Opp St,Wilmington,CA,90744,269000,,,196 - East Wilmington,,5926,,294,,,Active,,,https://www.redfin.com/CA/Wilmington/561-E-Opp-St-90744/home/7679577,CRMLS,SB23178856,N,Y,33.7833026,-118.255513
MLS Listing,,Vacant Land,5121 Llano Dr,Woodland Hills,CA,91364,269000,,,WHLL - Woodland Hills,,19770,,1,,,Active,,,https://www.redfin.com/CA/Woodland-Hills/5121-Llano-Dr-91364/home/22834207,CRMLS,SR24146439,N,Y,34.161557,-118.610647
MLS Listing,,Single Family Residential,1974 Chariton St,Los Angeles,CA,90034,1300000,3,2.0,C09 - Beverlywood Vicinity,1577,5641,1929,1,824,,Active,,,https://www.redfin.com/CA/Los-Angeles/1974-Chariton-St-90034/home/6787101,CRMLS,SB24139320,N,Y,34.040759,-118.3777135
MLS Listing,,Single Family Residential,15161 Weddington St,Sherman Oaks,CA,91411,1400000,3,2.0,SO - Sherman Oaks,1784,11172,1949,1,785,,Active,,,https://www.redfin.com/CA/Sherman-Oaks/15161-Weddington-St-91411/home/4747964,CRMLS,SR24139350,N,Y,34.1675766,-118.4639729
MLS Listing,,Condo/Co-op,1110 Hacienda Pl #306,West Hollywood,CA,90069,619000,1,1.0,West Hollywood Vicinity,761,13515,1963,1,813,471,Active,July-21-2024 02:00 PM,July-21-2024 05:00 PM,https://www.redfin.com/CA/West-Hollywood/1110-Hacienda-Pl-90069/unit-306/home/7118609,TheMLS,24-417011,N,Y,34.0911967,-118.3748484
MLS Listing,,Single Family Residential,3050 E Side Blvd,Los Angeles,CA,90063,550000,3,2.0,BOYH - Boyle Heights,846,3882,1907,1,650,,Pre On-Market,,,https://www.redfin.com/CA/Los-Angeles/3050-East-Side-Blvd-90063/home/6939840,CRMLS,DW24147836,N,Y,34.0433527,-118.1986961
MLS Listing,,Single Family Residential,10537 Eton Ave,Chatsworth,CA,91311,985000,4,3.0,CHT - Chatsworth,2058,7523,1970,1,479,,Active,,,https://www.redfin.com/CA/Chatsworth/10537-Eton-Ave-91311/home/5774909,CRMLS,SR24136459,N,Y,34.2619281,-118.5947231
MLS Listing,,Single Family Residential,5549 Ventura Canyon Ave,Sherman Oaks,CA,91401,1200000,3,1.0,Sherman Oaks,1218,6514,1948,1,985,,Active,,,https://www.redfin.com/CA/Sherman-Oaks/5549-Ventura-Canyon-Ave-91401/home/5181264,TheMLS,24-416337,N,Y,34.1717856,-118.4292588
MLS Listing,,Condo/Co-op,8530 Holloway Dr #324,West Hollywood,CA,90069,638000,1,1.0,West Hollywood Vicinity,768,47398,1973,1,831,500,Active,,,https://www.redfin.com/CA/West-Hollywood/8530-Holloway-Dr-90069/unit-324/home/6817459,TheMLS,24-402931,N,Y,34.0901915,-118.3770644
MLS Listing,,Condo/Co-op,12975 Agustin Pl #116,Playa Vista,CA,90094,1199000,2,2.0,Playa Vista,1270,40243,2004,1,944,883,Active,,,https://www.redfin.com/CA/Playa-Vista/12975-Agustin-Pl-90094/unit-116/home/8175947,TheMLS,24-415031,N,Y,33.9747074,-118.4232922
MLS Listing,,Condo/Co-op,7100 Playa Vista Dr #219,Playa Vista,CA,90094,965000,2,2.0,Playa Vista,1210,61621,2007,1,798,956,Active,,,https://www.redfin.com/CA/Playa-Vista/7100-Playa-Vista-Dr-90094/unit-219/home/21921687,TheMLS,24-414109,N,Y,33.9696188,-118.4250578
MLS Listing,,Single Family Residential,8407 Skyline Dr,Los Angeles,CA,90046,2895000,4,2.5,Sunset Strip - Hollywood Hills West,2597,14966,1969,1,1115,,Active,July-21-2024 02:00 PM,July-21-2024 05:00 PM,https://www.redfin.com/CA/Los-Angeles/8407-Skyline-Dr-90046/home/7123640,TheMLS,24-416847,N,Y,34.1187907,-118.3891694
MLS Listing,,Multi-Family (2-4 Unit),238 Horizon Ave,Venice,CA,90291,2295000,4,2.0,Venice,2242,2850,1913,1,1024,,Active,,,https://www.redfin.com/CA/Venice/238-Horizon-Ave-90291/home/6741427,TheMLS,24-416471,N,Y,33.9899688,-118.470721
MLS Listing,,Condo/Co-op,1250 S Beverly Glen Blvd #107,Los Angeles,CA,90024,800000,2,2.0,Westwood - Century City,1318,28682,1972,1,607,530,Active,July-20-2024 01:00 PM,July-20-2024 04:00 PM,https://www.redfin.com/CA/Los-Angeles/1250-S-Beverly-Glen-Blvd-90024/unit-107/home/6806936,TheMLS,24-416125,N,Y,34.0655898,-118.4273685
MLS Listing,,Single Family Residential,1962 S Point View St,Los Angeles,CA,90034,1995000,4,4.0,Beverlywood Vicinity,2316,7128,1941,1,861,,Active,,,https://www.redfin.com/CA/Los-Angeles/1962-S-Point-View-St-90034/home/6902357,TheMLS,24-414397,N,Y,34.0401408,-118.3734648
MLS Listing,,Single Family Residential,12448 Sarah St,Studio City,CA,91604,2550000,2,2.0,Studio City,2287,8019,1941,1,1115,,Pre On-Market,,,https://www.redfin.com/CA/Studio-City/12448-Sarah-St-91604/home/5227114,TheMLS,24-417007,N,Y,34.1537697,-118.4047867
MLS Listing,,Condo/Co-op,1828 Holmby Ave #204,Los Angeles,CA,90025,1165000,2,2.0,Westwood - Century City,1725,13304,1973,1,675,500,Active,,,https://www.redfin.com/CA/Los-Angeles/1828-Holmby-Ave-90025/unit-204/home/6796502,TheMLS,24-414325,N,Y,34.0553771,-118.4249365
MLS Listing,,Single Family Residential,8827 Valjean Ave,North Hills,CA,91343,1250000,3,2.0,NOH - North Hills,1675,8230,1960,1,746,,Active,July-20-2024 12:00 PM,July-20-2024 04:00 PM,https://www.redfin.com/CA/North-Hills/8827-Valjean-Ave-91343/home/5745966,CRMLS,SR24145077,N,Y,34.2309589,-118.4876244
MLS Listing,,Single Family Residential,20347 Haynes St,Winnetka,CA,91306,999000,3,2.0,WIN - Winnetka,1841,7517,1963,1,543,,Pre On-Market,,,https://www.redfin.com/CA/Winnetka/20347-Haynes-St-91306/home/3946399,CRMLS,SR24147803,N,Y,34.1924309,-118.5767412
MLS Listing,,Townhouse,20146 Cohasset St #15,Winnetka,CA,91306,525000,2,1.5,WIN - Winnetka,1070,198873,1971,1,491,449,Active,,,https://www.redfin.com/CA/Winnetka/20146-Cohasset-St-91306/unit-15/home/8182467,CRMLS,CV24146580,N,Y,34.2067847,-118.5727636
MLS Listing,,Multi-Family (2-4 Unit),770 W 2nd St,San Pedro,CA,90731,1499000,7,4.0,187 - Holy Trinity,3731,5001,1988,1,402,,Active,July-21-2024 02:00 PM,July-21-2024 04:00 PM,https://www.redfin.com/CA/San-Pedro/770-W-2nd-St-90731/home/21924044,CRMLS,SB24143534,N,Y,33.7426469,-118.293826
MLS Listing,,Condo/Co-op,11636 Montana Ave #202,Los Angeles,CA,90049,1430000,2,2.5,Brentwood,1587,27749,1985,1,901,635,Active,,,https://www.redfin.com/CA/Los-Angeles/11636-Montana-Ave-90049/unit-202/home/6836348,TheMLS,24-416481,N,Y,34.0559258,-118.465262
MLS Listing,,Townhouse,621 N Orlando Ave #7,West Hollywood,CA,90048,995000,2,2.5,C10 - West Hollywood Vicinity,1538,12502,1975,1,647,370,Active,July-20-2024 12:00 PM,July-20-2024 04:00 PM,https://www.redfin.com/CA/West-Hollywood/621-N-Orlando-Ave-90048/unit-7/home/7104865,CRMLS,SR24145228,N,Y,34.0825961,-118.3734874
MLS Listing,,Condo/Co-op,10636 Woodley Ave #50,Granada Hills,CA,91344,429950,2,1.0,GH - Granada Hills,812,109754,1974,1,529,508,Active,,,https://www.redfin.com/CA/Granada-Hills/10636-Woodley-Ave-91344/unit-50/home/5710325,CRMLS,SR24146746,N,Y,34.2638539,-118.484578
MLS Listing,,Condo/Co-op,5015 Balboa Blvd #307,Encino,CA,91316,995000,3,2.0,ENC - Encino,1600,34181,2016,1,622,771,Active,,,https://www.redfin.com/CA/Encino/5015-Balboa-Blvd-91316/unit-307/home/143518237,CRMLS,SR24146530,N,Y,34.1622238,-118.5014632
MLS Listing,,Multi-Family (2-4 Unit),2406 3rd Ave,Los Angeles,CA,90018,2250000,11,10.0,C16 - Mid Los Angeles,6831,8832,1923,1,329,,Active,,,https://www.redfin.com/CA/Los-Angeles/2406-3rd-Ave-90018/home/6898513,CRMLS,OC24146907,N,Y,34.0352179,-118.3198777
MLS Listing,,Single Family Residential,17369 Hatteras St,Encino,CA,91316,1399000,3,2.0,Encino,2153,5498,1949,1,650,,Active,July-21-2024 11:00 AM,July-21-2024 02:00 PM,https://www.redfin.com/CA/Encino/17369-Hatteras-St-91316/home/4756119,TheMLS,24-415439,N,Y,34.1764203,-118.512279
MLS Listing,,Single Family Residential,17012 Escalon Dr,Encino,CA,91436,5895000,6,6.5,Encino,6370,11132,1965,1,925,,Active,July-21-2024 02:00 PM,July-21-2024 05:00 PM,https://www.redfin.com/CA/Encino/17012-Escalon-Dr-91436/home/4927911,TheMLS,24-416981,N,Y,34.1399017,-118.5024079
MLS Listing,,Condo/Co-op,10475 Eastborne Ave Ph 306,Los Angeles,CA,90024,1350000,3,3.0,Westwood - Century City,1799,19534,1985,1,750,550,Active,July-21-2024 01:00 PM,July-21-2024 04:00 PM,https://www.redfin.com/CA/Los-Angeles/10475-Eastborne-Ave-90024/unit-306/home/6805834,TheMLS,24-409047,N,Y,34.0571794,-118.427043
MLS Listing,,Townhouse,1639 Selby Ave Unit A,Los Angeles,CA,90024,1199000,2,2.5,Westwood - Century City,1567,5812,1981,1,765,500,Active,July-20-2024 02:00 PM,July-20-2024 05:00 PM,https://www.redfin.com/CA/Los-Angeles/1639-Selby-Ave-90024/unit-A/home/6803977,TheMLS,24-416451,N,Y,34.0534369,-118.436718
MLS Listing,,Single Family Residential,18633 Vanowen St,Reseda,CA,91335,1350000,5,4.5,RES - Reseda,3079,11033,2020,1,438,,Active,,,https://www.redfin.com/CA/Reseda/18633-Vanowen-St-91335/home/3849111,CRMLS,SR24145256,N,Y,34.1943031,-118.5398006
MLS Listing,,Single Family Residential,20621-S Denker Ave,Torrance,CA,90501,949000,4,3.5,122 - Harbor Gateway,2177,7002,2023,1,436,162,Active,July-19-2024 01:00 PM,July-19-2024 04:00 PM,https://www.redfin.com/CA/Torrance/20621-Denker-Ave-90501/home/191718050,CRMLS,SB24145285,N,Y,33.8434933,-118.3042044
MLS Listing,,Townhouse,9950 Reseda Blvd #15,Northridge,CA,91324,669000,3,2.5,NR - Northridge,1829,142698,1973,1,366,468,Active,July-21-2024 11:00 AM,July-21-2024 01:00 PM,https://www.redfin.com/CA/Northridge/9950-Reseda-Blvd-91324/unit-15/home/5820063,CRMLS,SR24147046,N,Y,34.2516893,-118.5345438
MLS Listing,,Condo/Co-op,2332 Fox Hills Dr #303,Los Angeles,CA,90064,1199000,2,2.5,Westwood - Century City,1895,18211,1974,1,633,700,Active,July-21-2024 02:00 PM,July-21-2024 05:00 PM,https://www.redfin.com/CA/Los-Angeles/2332-Fox-Hills-Dr-90064/unit-303/home/6795550,TheMLS,24-402695,N,Y,34.0501427,-118.414021
MLS Listing,,Single Family Residential,6520 San Vicente Blvd,Los Angeles,CA,90048,1585000,3,2.0,C17 - Mid-Wilshire,1640,7491,1928,1,966,,Active,July-20-2024 01:00 PM,July-20-2024 04:00 PM,https://www.redfin.com/CA/Los-Angeles/6520-San-Vicente-Blvd-90048/home/6915513,CRMLS,SB24147722,N,Y,34.0624984,-118.3701045
MLS Listing,,Single Family Residential,435 W 106th St,Los Angeles,CA,90003,749000,3,2.0,WLA - West Los Angeles,1206,5402,1925,1,621,,Active,,,https://www.redfin.com/CA/Los-Angeles/435-W-106th-St-90003/home/7310948,CRMLS,MB24144946,N,Y,33.9403052,-118.2817691
MLS Listing,,Single Family Residential,13944 Daventry St,Pacoima,CA,91331,855000,0,,PAC - Pacoima,100,3002,1900,1,8550,,Active,,,https://www.redfin.com/CA/Pacoima/13944-Daventry-St-91331/home/190626014,CRMLS,PW24147729,N,Y,34.2644638,-118.4364958
MLS Listing,,Single Family Residential,24000 Strathern St,West Hills,CA,91304,1449000,4,3.0,WEH - West Hills,3064,7895,1986,1,473,52,Active,July-20-2024 01:00 PM,July-20-2024 04:00 PM,https://www.redfin.com/CA/West-Hills/24000-Strathern-St-91304/home/3060222,CRMLS,SR24147207,N,Y,34.2147138,-118.6503971
MLS Listing,,Single Family Residential,4865 Eldred St,Highland Park,CA,90042,1249000,3,2.0,632 - Highland Park,1152,5382,1910,1,1084,,Active,July-20-2024 12:00 PM,July-20-2024 04:00 PM,https://www.redfin.com/CA/Los-Angeles/4865-Eldred-St-90042/home/7078542,CRMLS,MB24140180,N,Y,34.1085965,-118.2085137
MLS Listing,,Single Family Residential,12487 Gilmore Ave,Los Angeles,CA,90066,1199000,2,1.0,C12 - Marina Del Rey,850,4799,1925,1,1411,,Pre On-Market,,,https://www.redfin.com/CA/Los-Angeles/12487-Gilmore-Ave-90066/home/6732472,CRMLS,PV24146823,N,Y,33.9912003,-118.4253693
MLS Listing,,Condo/Co-op,131 N Gale Dr Unit 1A,Beverly Hills,CA,90211,875000,2,2.0,Beverly Hills,1105,12979,1962,1,792,829,Active,July-23-2024 11:00 AM,July-23-2024 02:00 PM,https://www.redfin.com/CA/Beverly-Hills/131-N-Gale-Dr-90211/unit-1A/home/8143069,TheMLS,24-416537,N,Y,34.0667981,-118.3744483
MLS Listing,,Single Family Residential,5928 S Chariton Ave,Los Angeles,CA,90056,1725950,3,3.0,Ladera Heights,2280,8059,1957,1,757,,Active,July-20-2024 01:00 PM,July-20-2024 04:00 PM,https://www.redfin.com/CA/Los-Angeles/5928-S-Chariton-Ave-90056/home/6596231,TheMLS,24-416929,N,Y,33.9848267,-118.3722238
MLS Listing,,Multi-Family (5+ Unit),3719 Rosemead Ave,Los Angeles,CA,90032,1950000,16,9.0,El Sereno,7188,7127,1964,1,271,,Active,,,https://www.redfin.com/CA/Los-Angeles/3719-Rosemead-Ave-90032/home/7001226,TheMLS,24-416867,N,Y,34.0877577,-118.1764943
MLS Listing,,Single Family Residential,113222 Southwest Blvd,Los Angeles,CA,90044,855000,0,,C37 - Metropolitan South,100,2606,1900,1,8550,,Active,,,https://www.redfin.com/CA/Los-Angeles/113222-Southwest-Blvd-90044/home/190623107,CRMLS,PW24147720,N,Y,33.94788,-118.293589
MLS Listing,,Single Family Residential,4831 Excelente Dr,Woodland Hills,CA,91364,1499000,4,2.5,Woodland Hills,2085,8851,1956,1,719,,Active,July-20-2024 11:00 AM,July-20-2024 02:00 PM,https://www.redfin.com/CA/Woodland-Hills/4831-Excelente-Dr-91364/home/3565642,TheMLS,24-416621,N,Y,34.1569684,-118.6173802
MLS Listing,,Condo/Co-op,10350 Wilshire Blvd #1201,Los Angeles,CA,90024,1595000,2,3.0,Westwood - Century City,2045,21643,1982,1,780,3265,Active,,,https://www.redfin.com/CA/Los-Angeles/10350-Wilshire-Blvd-90024/unit-1201/home/6807030,TheMLS,24-416707,N,Y,34.0672976,-118.4269237
MLS Listing,,Townhouse,11471 Tampa Ave #150,Porter Ranch,CA,91326,765000,4,3.0,PORA - Porter Ranch,1637,543508,1975,1,467,599,Active,July-20-2024 12:00 PM,July-20-2024 04:00 PM,https://www.redfin.com/CA/Porter-Ranch/11471-Tampa-Ave-91326/unit-150/home/5763654,CRMLS,SR24147041,N,Y,34.2791518,-118.5620268
MLS Listing,,Single Family Residential,6609 Newcastle Ave,Reseda,CA,91335,855000,0,,RES - Reseda,100,2689,1900,1,8550,,Active,,,https://www.redfin.com/CA/Reseda/6609-Newcastle-Ave-91335/home/190622379,CRMLS,PW24147704,N,Y,34.1906388,-118.5256097
MLS Listing,,Single Family Residential,8742 La Salle Ave,Los Angeles,CA,90047,855000,0,,C37 - Metropolitan South,100,2701,1900,1,8550,,Active,,,https://www.redfin.com/CA/Los-Angeles/8742-La-Salle-Ave-90047/home/190622378,CRMLS,PW24147712,N,Y,33.9576938,-118.3054372
MLS Listing,,Single Family Residential,2242 Maricopa Dr,Los Angeles,CA,90065,949000,2,1.0,Glassell Park,1036,4737,1946,1,916,,Active,July-20-2024 02:00 PM,July-20-2024 04:00 PM,https://www.redfin.com/CA/Los-Angeles/2242-Maricopa-Dr-90065/home/7074532,TheMLS,24-416865,N,Y,34.1109524,-118.2248353
MLS Listing,,Single Family Residential,5957 S Van Ness Ave,Los Angeles,CA,90047,855000,0,,C16 - Mid Los Angeles,100,1924,1900,1,8550,,Active,,,https://www.redfin.com/CA/Los-Angeles/5957-S-Van-Ness-Ave-90047/home/190622327,CRMLS,PW24147695,N,Y,33.9857248,-118.3180003
MLS Listing,,Single Family Residential,22702 Burbank Blvd,Woodland Hills,CA,91367,950000,3,2.0,WHLL - Woodland Hills,1437,8147,1952,1,661,,Active,July-21-2024 01:00 PM,July-21-2024 04:00 PM,https://www.redfin.com/CA/Woodland-Hills/22702-Burbank-Blvd-91367/home/3225557,CRMLS,SR24147409,N,Y,34.1717006,-118.6213653
MLS Listing,,Single Family Residential,1728 Wellesley Ave,Los Angeles,CA,90025,1575000,2,1.0,West L.A.,938,5504,1938,1,1679,,Active,July-28-2024 02:00 PM,July-28-2024 05:00 PM,https://www.redfin.com/CA/Los-Angeles/1728-Wellesley-Ave-90025/home/6756086,TheMLS,24-416039,N,Y,34.0355878,-118.4604325
MLS Listing,,Single Family Residential,15220 Morrison St,Sherman Oaks,CA,91403,1010000,2,1.0,Sherman Oaks,910,5941,1940,1,1110,,Active,July-20-2024 02:00 PM,July-20-2024 05:00 PM,https://www.redfin.com/CA/Sherman-Oaks/15220-Morrison-St-91403/home/4806638,TheMLS,24-414975,N,Y,34.1601227,-118.4647343
MLS Listing,,Condo/Co-op,1200 Club View Dr Unit 4S,Los Angeles,CA,90024,4950000,2,3.0,Westwood - Century City,3605,24966,2009,1,1373,7278,Active,,,https://www.redfin.com/CA/Los-Angeles/1200-Club-View-Dr-90024/unit-4S/home/184415996,TheMLS,24-416493,N,Y,34.0676595,-118.4250056
MLS Listing,,Condo/Co-op,1200 Club View Dr Unit 5N,Los Angeles,CA,90024,5350000,3,4.0,Westwood - Century City,3858,24966,2009,1,1387,7278,Active,,,https://www.redfin.com/CA/Los-Angeles/1200-Club-View-Dr-90024/unit-5N/home/184415561,TheMLS,24-416497,N,Y,34.0676595,-118.4250056
MLS Listing,,Multi-Family (5+ Unit),25701 President Ave,Harbor City,CA,90710,1200000,11,10.0,Harbor City,4953,8408,1950,1,242,,Active,,,https://www.redfin.com/CA/Harbor-City/25701-President-Ave-90710/home/7672496,TheMLS,24-416947,N,Y,33.7902596,-118.3044236
MLS Listing,,Townhouse,5255 Zelzah Ave #118,Encino,CA,91316,789000,2,3.0,ENC - Encino,2027,65456,1975,1,389,780,Active,,,https://www.redfin.com/CA/Encino/5255-Zelzah-Ave-91316/unit-118/home/4123823,CRMLS,SR24146876,N,Y,34.1666504,-118.5223095
MLS Listing,,Multi-Family (2-4 Unit),1509 S Fairfax Ave,Los Angeles,CA,90019,1350000,8,4.0,C16 - Mid Los Angeles,3952,6887,1928,1,342,,Active,,,https://www.redfin.com/CA/Los-Angeles/1509-S-Fairfax-Ave-90019/home/6903800,CRMLS,SR24147610,N,Y,34.0494176,-118.3673721
MLS Listing,,Multi-Family (2-4 Unit),3838 W Avenue 41,Los Angeles,CA,90065,1149000,2,2.0,Glassell Park,1264,4792,1929,1,909,,Active,July-20-2024 02:00 PM,July-20-2024 05:00 PM,https://www.redfin.com/CA/Los-Angeles/3838-W-Avenue-41-90065/home/7079294,TheMLS,24-416397,N,Y,34.1221682,-118.2277149
MLS Listing,,Condo/Co-op,733 S Manhattan Pl #501,Los Angeles,CA,90005,679000,2,2.0,Hancock Park-Wilshire,1090,15018,2008,1,623,420,Active,,,https://www.redfin.com/CA/Los-Angeles/733-S-Manhattan-Pl-90005/unit-501/home/21915078,TheMLS,24-416475,N,Y,34.0585561,-118.3104868
MLS Listing,,Single Family Residential,9555 Oak Pass Rd,Beverly Hills,CA,90210,7395000,6,5.5,Beverly Hills Post Office,4853,43815,1950,1,1524,150,Active,,,https://www.redfin.com/CA/Beverly-Hills/9555-Oak-Pass-Rd-90210/home/6833387,TheMLS,24-416827,N,Y,34.1166893,-118.4267354
MLS Listing,,Single Family Residential,8581 Cole Crest Dr,Los Angeles,CA,90046,2699000,5,5.0,C03 - Sunset Strip - Hollywood Hills West,2892,3000,1989,1,933,,Active,,,https://www.redfin.com/CA/Los-Angeles/8581-Cole-Crest-Dr-90046/home/18842081,CRMLS,PW24147600,N,Y,34.1035495,-118.3784648
MLS Listing,,Townhouse,10051 Topanga Canyon Blvd #15,Chatsworth,CA,91311,584000,2,2.0,CHT - Chatsworth,1335,83107,1980,1,437,425,Active,,,https://www.redfin.com/CA/Chatsworth/10051-Topanga-Canyon-Blvd-91311/unit-15/home/5833626,CRMLS,SR24145235,N,Y,34.25299,-118.60659
MLS Listing,,Single Family Residential,7644 Bellaire Ave,North Hollywood,CA,91605,799000,3,2.0,North Hollywood,1283,6000,1955,1,623,,Active,July-21-2024 02:00 PM,July-21-2024 05:00 PM,https://www.redfin.com/CA/North-Hollywood/7644-Bellaire-Ave-91605/home/4973829,TheMLS,24-416879,N,Y,34.2096955,-118.4100672
MLS Listing,,Townhouse,1588 Michael Ln,Pacific Palisades,CA,90272,1649000,3,2.5,Pacific Palisades,2081,400291,1979,1,792,685,Active,July-21-2024 02:00 AM,July-21-2024 05:00 PM,https://www.redfin.com/CA/Pacific-Palisades/1588-Michael-Ln-90272/home/6848762,TheMLS,24-416329,N,Y,34.0787699,-118.5649258
MLS Listing,,Single Family Residential,324 S Concord St,Los Angeles,CA,90063,399000,1,1.0,BOYH - Boyle Heights,524,833,1912,1,761,,Active,July-19-2024 02:00 PM,July-19-2024 05:00 PM,https://www.redfin.com/CA/Los-Angeles/324-S-Concord-St-90063/home/6940467,CRMLS,DW24143348,N,Y,34.0348849,-118.198429
MLS Listing,,Single Family Residential,4718 N Village Court Ln,Valley Village,CA,91607,1499000,4,3.5,VVL - Valley Village,2419,1686,2021,1,620,197,Active,July-21-2024 02:00 PM,July-21-2024 05:00 PM,https://www.redfin.com/CA/Valley-Village/4718-N-Village-Court-Ln-91607/home/176518868,CRMLS,SR24144260,N,Y,34.1563683,-118.3972359
MLS Listing,,Single Family Residential,1810 Old Orchard Rd,Los Angeles,CA,90049,12495000,7,6.5,Brentwood,6800,13251,2024,1,1838,,Active,July-21-2024 02:00 PM,July-21-2024 05:00 PM,https://www.redfin.com/CA/Los-Angeles/1810-Old-Orchard-Rd-90049/home/6847342,TheMLS,24-415999,N,Y,34.0674686,-118.493335
MLS Listing,,Single Family Residential,4189 Holly Knoll Dr,Los Angeles,CA,90027,2849000,4,3.0,Los Feliz,3694,6765,1938,1,771,,Active,July-21-2024 02:00 PM,July-21-2024 05:00 PM,https://www.redfin.com/CA/Los-Angeles/4189-Holly-Knoll-Dr-90027/home/7135257,TheMLS,24-416443,N,Y,34.1066108,-118.2820118
MLS Listing,,Single Family Residential,1432 Harridge Dr,Beverly Hills,CA,90210,4999999,4,4.0,Beverly Hills Post Office,3060,5907,1960,1,1634,,Active,July-21-2024 02:00 PM,July-21-2024 05:00 PM,https://www.redfin.com/CA/Beverly-Hills/1432-Harridge-Dr-90210/home/6823633,TheMLS,24-414435,N,Y,34.0963234,-118.4191626
MLS Listing,,Single Family Residential,1503 Cabrillo Ave,Venice,CA,90291,2450000,3,3.0,Venice,1776,2550,1957,1,1380,,Active,,,https://www.redfin.com/CA/Venice/1503-Cabrillo-Ave-90291/home/6741243,TheMLS,24-416647,N,Y,33.9900057,-118.4655164
MLS Listing,,Townhouse,26129 Frampton Ave Unit E,Harbor City,CA,90710,595000,2,2.5,124 - Harbor City,1008,66553,1987,1,590,300,Active,July-20-2024 12:00 PM,July-20-2024 03:00 PM,https://www.redfin.com/CA/Harbor-City/26129-Frampton-Ave-90710/unit-E/home/7672854,CRMLS,PW24143401,N,Y,33.7847033,-118.3007179
MLS Listing,,Single Family Residential,160 N Bowling Green Way,Los Angeles,CA,90049,2950000,4,2.0,C06 - Brentwood,2898,7072,1939,1,1018,,Active,July-20-2024 01:00 PM,July-20-2024 04:00 PM,https://www.redfin.com/CA/Los-Angeles/160-N-Bowling-Green-Way-90049/home/6837138,CRMLS,SR24145767,N,Y,34.061083,-118.4770255
MLS Listing,,Single Family Residential,5171 S Wilton Pl,Los Angeles,CA,90062,599900,2,1.0,699 - Not Defined,1080,5207,1912,1,555,,Active,,,https://www.redfin.com/CA/Los-Angeles/5171-S-Wilton-Pl-90062/home/6870255,CRMLS,CV24146494,N,Y,33.995334,-118.3152297
MLS Listing,,Single Family Residential,4371 Morro Dr,Woodland Hills,CA,91364,1199000,3,3.0,WHLL - Woodland Hills,2035,5974,1963,1,589,,Active,July-20-2024 11:00 AM,July-20-2024 02:00 PM,https://www.redfin.com/CA/Woodland-Hills/4371-Morro-Dr-91364/home/4211983,CRMLS,SR24147452,N,Y,34.1509475,-118.5894977
MLS Listing,,Single Family Residential,19011 Castlebay Ln,Porter Ranch,CA,91326,1050000,3,3.0,PORA - Porter Ranch,2003,8775,1966,1,524,,Active,July-20-2024 12:00 PM,July-20-2024 03:00 PM,https://www.redfin.com/CA/Porter-Ranch/19011-Castlebay-Ln-91326/home/5979841,CRMLS,SR24147086,N,Y,34.294548,-118.5478483
MLS Listing,,Single Family Residential,2127 Midvale Ave,Los Angeles,CA,90025,1795000,2,2.0,Westwood - Century City,1268,5411,1930,1,1416,,Active,July-20-2024 02:00 PM,July-20-2024 05:00 PM,https://www.redfin.com/CA/Los-Angeles/2127-Midvale-Ave-90025/home/6800418,TheMLS,24-415801,N,Y,34.0439136,-118.4334985
MLS Listing,,Single Family Residential,3024 Military Ave,Los Angeles,CA,90034,1999000,4,3.0,Palms - Mar Vista,2225,6442,1952,1,898,,Active,July-21-2024 01:00 PM,July-21-2024 04:00 PM,https://www.redfin.com/CA/Los-Angeles/3024-Military-Ave-90034/home/6751021,TheMLS,24-415849,N,Y,34.0279974,-118.4245924
MLS Listing,,Condo/Co-op,1037 N Vista St #206,West Hollywood,CA,90046,729000,2,2.0,West Hollywood Vicinity,1092,15781,1979,1,668,450,Active,July-21-2024 02:00 PM,July-21-2024 05:00 PM,https://www.redfin.com/CA/West-Hollywood/1037-N-Vista-St-90046/unit-206/home/7107362,TheMLS,24-416625,N,Y,34.0899442,-118.3527244
MLS Listing,,Single Family Residential,22850 Lull St,West Hills,CA,91304,899999,3,2.0,WEH - West Hills,1290,7189,1959,1,698,,Active,,,https://www.redfin.com/CA/Canoga-Park/22850-Lull-St-91304/home/8098595,CRMLS,SR24146846,N,Y,34.2089529,-118.6252134
MLS Listing,,Single Family Residential,730 Oxford Ave,Marina Del Rey,CA,90292,2349000,3,2.5,Marina Del Rey,2562,2992,1997,1,917,,Active,July-20-2024 02:00 PM,July-20-2024 05:00 PM,https://www.redfin.com/CA/Marina-del-Rey/730-Oxford-Ave-90292/home/8101882,TheMLS,24-415979,N,Y,33.9860731,-118.4533728
MLS Listing,,Single Family Residential,2629 Angelo Dr,Los Angeles,CA,90077,2075000,3,2.5,Bel Air - Holmby Hills,2572,121641,1978,1,807,545,Active,July-21-2024 02:00 PM,July-21-2024 04:00 PM,https://www.redfin.com/CA/Los-Angeles/2629-Angelo-Dr-90077/home/180090273,TheMLS,24-416823,N,Y,34.118837,-118.4429259
MLS Listing,,Single Family Residential,520 Lillian Way,Los Angeles,CA,90004,2395000,3,3.5,Hancock Park-Wilshire,1956,6966,1923,1,1224,,Active,July-20-2024 02:00 PM,July-20-2024 05:00 PM,https://www.redfin.com/CA/Los-Angeles/520-Lillian-Way-90004/home/7099905,TheMLS,24-416499,N,Y,34.0796034,-118.3281363
MLS Listing,,Single Family Residential,18637 Willard St,Reseda,CA,91335,899000,4,2.0,Reseda,1900,8103,1956,1,473,,Active,,,https://www.redfin.com/CA/Reseda/18637-Willard-St-91335/home/3627089,CSMAR,224002941,N,Y,34.2186523,-118.5398724
MLS Listing,,Single Family Residential,4845 Matilija Ave,Sherman Oaks,CA,91423,1995000,3,2.0,Sherman Oaks,1961,7933,1948,1,1017,,Active,July-19-2024 11:00 AM,July-19-2024 02:00 PM,https://www.redfin.com/CA/Sherman-Oaks/4845-Matilija-Ave-91423/home/4850237,TheMLS,24-416893,N,Y,34.1589142,-118.43373
MLS Listing,,Single Family Residential,1565 Hi Point St,Los Angeles,CA,90035,1549000,3,3.5,C09 - Beverlywood Vicinity,1903,9179,2022,1,814,250,Active,,,https://www.redfin.com/CA/Los-Angeles/1565-Hi-Point-St-90035/home/6903645,CRMLS,SR24144430,N,Y,34.0482192,-118.3700046
MLS Listing,,Single Family Residential,23349 Canzonet St,Woodland Hills,CA,91367,2250000,5,4.0,WHLL - Woodland Hills,3888,11174,1963,1,579,,Active,,,https://www.redfin.com/CA/Woodland-Hills/23349-Canzonet-St-91367/home/3251662,CRMLS,SR24147508,N,Y,34.1667724,-118.6358978
MLS Listing,,Single Family Residential,14432 Valley Vista Blvd,Sherman Oaks,CA,91423,2075000,3,3.0,Sherman Oaks,2370,14428,1940,1,876,,Active,July-23-2024 11:00 AM,July-23-2024 02:00 PM,https://www.redfin.com/CA/Sherman-Oaks/14432-Valley-Vista-Blvd-91423/home/4868266,TheMLS,24-416043,N,Y,34.1463045,-118.4481167
MLS Listing,,Single Family Residential,1256 Delresto Dr,Beverly Hills,CA,90210,8295000,6,7.5,C02 - Beverly Hills Post Office,6151,19166,1964,1,1349,,Active,July-19-2024 11:00 AM,July-19-2024 01:00 PM,https://www.redfin.com/CA/Beverly-Hills/1256-Delresto-Dr-90210/home/6823956,CRMLS,SR24147303,N,Y,34.0920455,-118.426084
MLS Listing,,Single Family Residential,22027 Gresham St,West Hills,CA,91304,1000000,5,3.0,WEH - West Hills,2075,12783,1962,1,482,,Active,,,https://www.redfin.com/CA/West-Hills/22027-Gresham-St-91304/home/8096191,CRMLS,SR24147221,N,Y,34.2305184,-118.6069923
MLS Listing,,Single Family Residential,2011 Vineyard Ave,Los Angeles,CA,90016,888000,2,1.0,Mid Los Angeles,820,2342,1922,1,1083,,Active,,,https://www.redfin.com/CA/Los-Angeles/2011-Vineyard-Ave-90016/home/6899374,TheMLS,24-414249,N,Y,34.0382912,-118.3406493
MLS Listing,,Condo/Co-op,19172 Index St #2,Porter Ranch,CA,91326,825000,3,3.0,Porter Ranch,1598,362802,1980,1,516,532,Active,July-21-2024 11:00 AM,July-21-2024 02:00 PM,https://www.redfin.com/CA/Porter-Ranch/19172-Index-St-91326/unit-2/home/5984141,TheMLS,24-416791,N,Y,34.2749563,-118.5495367
MLS Listing,,Condo/Co-op,15425 Sherman Way #217,Van Nuys,CA,91406,369900,1,1.0,VN - Van Nuys,580,152347,1976,1,638,368,Active,,,https://www.redfin.com/CA/Van-Nuys/15425-Sherman-Way-91406/unit-217/home/12290477,CRMLS,SR24146649,N,Y,34.2015091,-118.4695222
MLS Listing,,Townhouse,18730 Hatteras St #5,Tarzana,CA,91356,839000,3,2.5,TAR - Tarzana,2418,85977,1985,1,347,726,Active,July-20-2024 01:00 PM,July-20-2024 04:00 PM,https://www.redfin.com/CA/Tarzana/18730-Hatteras-St-91356/unit-5/home/4049049,CRMLS,SR24143167,N,Y,34.1764606,-118.5416606
MLS Listing,,Multi-Family (5+ Unit),419 S Rexford Dr,Beverly Hills,CA,90212,4395000,8,8.0,Beverly Hills,5511,6077,1954,1,797,,Active,,,https://www.redfin.com/CA/Beverly-Hills/419-S-Rexford-Dr-90212/home/6811001,TheMLS,24-416657,N,Y,34.0588275,-118.3941513
MLS Listing,,Single Family Residential,3992 Prospect Ave,Los Angeles,CA,90027,1549000,2,2.0,Los Feliz,1506,4466,1936,1,1029,,Active,July-21-2024 02:00 PM,July-21-2024 04:00 PM,https://www.redfin.com/CA/Los-Angeles/3992-Prospect-Ave-90027/home/7060953,TheMLS,24-416891,N,Y,34.1017247,-118.2783481
MLS Listing,,Multi-Family (2-4 Unit),3428 Isabel Dr,Los Angeles,CA,90065,1435000,7,5.0,680 - Mount Washington,1894,7503,1924,1,758,,Active,,,https://www.redfin.com/CA/Los-Angeles/3428-Isabel-Dr-90065/home/7075209,CRMLS,IG24146930,N,Y,34.1043409,-118.2263681
MLS Listing,,Single Family Residential,1431 N Benton Way,Los Angeles,CA,90026,1299000,3,1.5,Silver Lake - Echo Park,1350,5633,1926,1,962,,Active,July-20-2024 02:00 PM,July-20-2024 05:00 PM,https://www.redfin.com/CA/Los-Angeles/1431-N-Benton-Way-90026/home/7058267,TheMLS,24-414545,N,Y,34.0843126,-118.2683644
MLS Listing,,Single Family Residential,9838 Portola Dr,Beverly Hills,CA,90210,2100000,3,4.0,Beverly Hills Post Office,2400,8875,2012,1,875,,Active,July-21-2024 02:00 PM,July-21-2024 05:00 PM,https://www.redfin.com/CA/Beverly-Hills/9838-Portola-Dr-90210/home/58302371,TheMLS,24-416073,N,Y,34.1101994,-118.4332228
MLS Listing,,Single Family Residential,11116 Yolanda Ave,Porter Ranch,CA,91326,1250000,4,2.5,Porter Ranch,2497,11409,1964,1,501,,Active,July-21-2024 01:00 PM,July-21-2024 04:00 PM,https://www.redfin.com/CA/Porter-Ranch/11116-Yolanda-Ave-91326/home/5790151,TheMLS,24-416871,N,Y,34.2721806,-118.5432509
MLS Listing,,Multi-Family (2-4 Unit),7377 W Manchester Ave,Los Angeles,CA,90045,1100000,4,2.0,Westchester,1664,5376,1948,1,661,,Active,July-28-2024 11:00 AM,July-28-2024 02:00 PM,https://www.redfin.com/CA/Los-Angeles/7377-W-Manchester-Ave-90045/home/6622421,TheMLS,24-411659,N,Y,33.9600644,-118.4253628
MLS Listing,,Multi-Family (2-4 Unit),626 Hoefner Ave,East Los Angeles,CA,90022,999000,7,6.0,ELA - East Los Angeles,3,5464,1998,1,333000,,Active,,,https://www.redfin.com/CA/Los-Angeles/626-Hoefner-Ave-90022/home/7433569,CRMLS,OC24147362,N,Y,34.0226302,-118.1491089
MLS Listing,,Single Family Residential,8807 Cimarron St,Los Angeles,CA,90047,784900,2,1.5,C16 - Mid Los Angeles,1035,5430,1941,1,758,,Active,,,https://www.redfin.com/CA/Los-Angeles/8807-Cimarron-St-90047/home/7293719,CRMLS,DW24147537,N,Y,33.9578294,-118.3164006
MLS Listing,,Single Family Residential,14043 Calvert St,Van Nuys,CA,91401,1069000,3,3.0,Valley Glen,1371,6512,1920,1,780,,Active,July-19-2024 11:00 AM,July-19-2024 02:00 PM,https://www.redfin.com/CA/Van-Nuys/14043-Calvert-St-91401/home/4639638,TheMLS,24-413451,N,Y,34.1823654,-118.4392928
MLS Listing,,Townhouse,5803 Etiwanda Ave,Tarzana,CA,91356,630000,2,2.5,TAR - Tarzana,1352,38146,1982,1,466,450,Active,,,https://www.redfin.com/CA/Tarzana/5803-Etiwanda-Ave-91356/home/4069024,CRMLS,SR24146910,N,Y,34.1768049,-118.5310568
MLS Listing,,Mobile/Manufactured Home,1065 W Lomita Blvd #220,Harbor City,CA,90710,325000,3,2.0,San Rafael Mobile Home Park,1644,,1973,1,198,,Active,July-20-2024 01:30 PM,July-20-2024 04:00 PM,https://www.redfin.com/CA/Harbor-City/1065-W-Lomita-Blvd-90710/unit-220/home/191715838,CRMLS,PW24144468,N,Y,33.7985925,-118.2954558
MLS Listing,,Multi-Family (2-4 Unit),5156 S Victoria Ave,Los Angeles,CA,90043,1399999,6,4.0,PHHT - Park Hills Heights,3336,6975,1925,1,420,,Active,July-18-2024 02:00 PM,July-18-2024 05:00 PM,https://www.redfin.com/CA/Los-Angeles/5156-S-Victoria-Ave-90043/home/6868912,CRMLS,SB24147506,N,Y,33.9951278,-118.3319089
MLS Listing,,Condo/Co-op,117 1/2 S Westlake Ave,Los Angeles,CA,90026,499000,2,2.0,Silver Lake - Echo Park,1030,6248,1949,1,484,202,Active,July-20-2024 01:00 PM,July-20-2024 04:00 PM,https://www.redfin.com/CA/Los-Angeles/222-1-2-S-Westlake-Ave-90057/home/190927695,TheMLS,24-415155,N,Y,34.0641069,-118.2698939
MLS Listing,,Single Family Residential,4833 Denny Ave,North Hollywood,CA,91601,1375000,3,3.0,North Hollywood,1793,8109,1948,1,767,,Active,July-20-2024 01:00 PM,July-20-2024 04:00 PM,https://www.redfin.com/CA/North-Hollywood/4833-Denny-Ave-91601/home/5301775,TheMLS,24-416863,N,Y,34.1586632,-118.3651058
MLS Listing,,Single Family Residential,1280 Monte Cielo Dr,Beverly Hills,CA,90210,6395000,6,7.0,Beverly Hills,5214,26287,1984,1,1227,,Active,,,https://www.redfin.com/CA/Beverly-Hills/1280-Monte-Cielo-Dr-90210/home/6822980,TheMLS,24-416887,N,Y,34.0993279,-118.4083592
MLS Listing,,Single Family Residential,14501 Ducat St,Mission Hills (san Fernando),CA,91345,699950,3,2.0,MHL - Mission Hills,1187,10223,1956,1,590,,Active,,,https://www.redfin.com/CA/Mission-Hills/14501-Ducat-St-91345/home/5591806,CRMLS,SR24144825,N,Y,34.2684515,-118.4486716
MLS Listing,,Single Family Residential,11510 Brymer Ln,Porter Ranch,CA,91326,2198000,4,3.0,PORA - Porter Ranch,3544,17406,1978,1,620,,Active,July-20-2024 01:00 PM,July-20-2024 04:00 PM,https://www.redfin.com/CA/Porter-Ranch/11510-Brymer-Ln-91326/home/6097156,CRMLS,SR24145482,N,Y,34.280338,-118.5359806
MLS Listing,,Single Family Residential,24006 Clarington Dr,West Hills,CA,91304,1799000,5,4.5,WEH - West Hills,4147,11696,1988,1,434,,Active,July-20-2024 12:00 PM,July-20-2024 02:00 PM,https://www.redfin.com/CA/West-Hills/24006-Clarington-Dr-91304/home/3130896,CRMLS,V1-24703,N,Y,34.2084197,-118.6502242
MLS Listing,,Condo/Co-op,530 S Hewitt St #541,Los Angeles,CA,90013,989000,1,1.0,Metropolitan,1300,39304,2007,1,761,640,Active,July-20-2024 02:00 PM,July-20-2024 05:00 PM,https://www.redfin.com/CA/Los-Angeles/530-S-Hewitt-St-90013/unit-541/home/28913174,TheMLS,24-416055,N,Y,34.0407,-118.23473
MLS Listing,,Townhouse,2267 Duane St #1,Los Angeles,CA,90039,1599000,3,4.0,671 - Silver Lake,2500,7503,2019,1,640,387,Active,July-20-2024 01:00 PM,July-20-2024 04:00 PM,https://www.redfin.com/CA/Los-Angeles/2267-Duane-St-90039/unit-1/home/175304928,CRMLS,SB24141187,N,Y,34.0911304,-118.2611603
MLS Listing,,Single Family Residential,6849 Firmament Ave,Van Nuys,CA,91406,2000000,4,5.0,VN - Van Nuys,3884,20195,1948,1,515,,Active,July-20-2024 01:00 PM,July-20-2024 04:00 PM,https://www.redfin.com/CA/Van-Nuys/6849-Firmament-Ave-91406/home/4585414,CRMLS,SR24146431,N,Y,34.1954364,-118.473277
MLS Listing,,Condo/Co-op,7100 Alvern St #404,Los Angeles,CA,90045,745000,2,2.0,C29 - Westchester,1150,29713,2011,1,648,525,Active,July-20-2024 12:00 PM,July-20-2024 04:00 PM,https://www.redfin.com/CA/Los-Angeles/7100-Alvern-St-90045/unit-404/home/40484266,CRMLS,SB24145480,N,Y,33.9749728,-118.3771505
MLS Listing,,Single Family Residential,7054 Vanscoy Ave,North Hollywood,CA,91605,1099000,5,3.0,NHO - North Hollywood,2492,7669,1963,1,441,,Active,,,https://www.redfin.com/CA/North-Hollywood/7054-Vanscoy-Ave-91605/home/5066209,CRMLS,WS24146801,N,Y,34.1992236,-118.4060488
MLS Listing,,Single Family Residential,6331 Murietta Ave,Valley Glen,CA,91401,1090000,3,2.0,VG - Valley Glen,1639,6984,1948,1,665,,Active,July-20-2024 01:00 PM,July-20-2024 05:00 PM,https://www.redfin.com/CA/Van-Nuys/6331-Murietta-Ave-91401/home/4632626,CRMLS,SR24146081,N,Y,34.1856838,-118.4391513
MLS Listing,,Single Family Residential,11736 Monogram Ave,Granada Hills,CA,91344,899000,4,2.0,GH - Granada Hills,1552,7517,1959,1,579,,Active,July-20-2024 01:00 PM,July-20-2024 04:00 PM,https://www.redfin.com/CA/Granada-Hills/11736-Monogram-Ave-91344/home/5580968,CRMLS,SR24130868,N,Y,34.2841416,-118.4918007
MLS Listing,,Single Family Residential,802 N Poinsettia Pl,Los Angeles,CA,90046,1700000,3,2.0,C10 - West Hollywood Vicinity,1111,3073,1928,1,1530,,Active,,,https://www.redfin.com/CA/Los-Angeles/802-N-Poinsettia-Pl-90046/home/7101618,CRMLS,PW24133945,N,Y,34.085438,-118.3484715
MLS Listing,,Single Family Residential,13023 Stanford Ave,Los Angeles,CA,90059,710000,4,2.0,C36 - Metropolitan Southwest,1162,6964,1947,1,611,,Pre On-Market,,,https://www.redfin.com/CA/Los-Angeles/13023-Stanford-Ave-90059/home/7337550,CRMLS,TR24147366,N,Y,33.9137385,-118.2627958
MLS Listing,,Multi-Family (2-4 Unit),4056 S Normandie Ave,Los Angeles,CA,90037,1155000,9,4.0,C34 - Los Angeles Southwest,3203,5991,1908,1,361,,Pre On-Market,,,https://www.redfin.com/CA/Los-Angeles/4056-S-Normandie-Ave-90037/home/6873743,CRMLS,DW24147467,N,Y,34.0096148,-118.2998291
MLS Listing,,Condo/Co-op,9551 Sundance St,Pacoima,CA,91331,729000,4,2.5,PAC - Pacoima,1557,1708,2011,1,468,182,Active,July-20-2024 12:00 PM,July-20-2024 03:00 PM,https://www.redfin.com/CA/Pacoima/9551-Sundance-St-91331/home/40388066,CRMLS,IV24139922,N,Y,34.243579,-118.4099261
MLS Listing,,Vacant Land,4534 Tourmaline St,Los Angeles,CA,90032,112000,,,621 - El Sereno,,5157,,1,,,Active,July-20-2024 01:00 PM,July-20-2024 02:00 PM,https://www.redfin.com/CA/Los-Angeles/4534-Tourmaline-St-90032/home/169937724,CRMLS,CV24147493,N,Y,34.078378,-118.191156
MLS Listing,,Single Family Residential,4371 Pampas Rd,Woodland Hills,CA,91364,1099000,4,2.0,WHLL - Woodland Hills,1866,10783,1962,1,589,,Active,July-19-2024 12:00 PM,July-19-2024 03:00 PM,https://www.redfin.com/CA/Woodland-Hills/4371-Pampas-Rd-91364/home/4311492,CRMLS,SR24145938,N,Y,34.1501268,-118.599908
MLS Listing,,Single Family Residential,7063 Jellico Ave,Van Nuys,CA,91406,899000,3,2.0,VN - Van Nuys,1595,7139,1977,1,564,,Active,July-21-2024 01:00 PM,July-21-2024 04:00 PM,https://www.redfin.com/CA/Van-Nuys/7063-Jellico-Ave-91406/home/4535146,CRMLS,GD24144783,N,Y,34.1992795,-118.517711
MLS Listing,,Single Family Residential,11949 Burton St,North Hollywood,CA,91605,799000,2,1.0,Custom,802,6343,1950,1,996,,Active,July-21-2024 12:00 PM,July-21-2024 04:00 PM,https://www.redfin.com/CA/North-Hollywood/11949-Burton-St-91605/home/4998467,CRMLS,P1-18362,N,Y,34.220678,-118.3932525
MLS Listing,,Multi-Family (2-4 Unit),1146 S Hayworth Ave,Los Angeles,CA,90035,2025000,6,4.0,Beverly Center-Miracle Mile,4097,6000,1929,1,494,,Active,,,https://www.redfin.com/CA/Los-Angeles/1146-S-Hayworth-Ave-90035/home/6914119,TheMLS,24-411617,N,Y,34.0545426,-118.3663191
MLS Listing,,Multi-Family (5+ Unit),9239 Firth Blvd,Los Angeles,CA,90002,1499999,17,11.0,Metropolitan South,6154,9184,2023,1,244,,Active,,,https://www.redfin.com/CA/Los-Angeles/9239-Firth-Blvd-90002/home/7300940,TheMLS,24-415049,N,Y,33.9521856,-118.2478864
MLS Listing,,Single Family Residential,8072 Kentwood Ave,Los Angeles,CA,90045,3695000,5,5.5,Westchester,4189,8530,1950,1,882,3,Active,,,https://www.redfin.com/CA/Los-Angeles/8072-Kentwood-Ave-90045/home/6613083,TheMLS,24-407661,N,Y,33.9664616,-118.4006027
MLS Listing,,Condo/Co-op,7120 La Tijera Blvd Unit C101,Los Angeles,CA,90045,670000,2,2.0,Westchester,1038,23915,1991,1,645,352,Active,July-21-2024 01:00 PM,July-21-2024 04:00 PM,https://www.redfin.com/CA/Los-Angeles/7120-La-Tijera-Blvd-90045/unit-C101/home/8120588,TheMLS,24-415185,N,Y,33.973717,-118.375301
MLS Listing,,Single Family Residential,4509 Corliss St,Los Angeles,CA,90041,1175000,4,3.0,Eagle Rock,1196,2222,1923,1,982,,Active,,,https://www.redfin.com/CA/Los-Angeles/4509-Corliss-St-90041/home/7079936,TheMLS,24-409673,N,Y,34.1273693,-118.2174145
MLS Listing,,Single Family Residential,7748 Jason Ave,West Hills,CA,91304,1295000,4,2.5,West Hills,2630,7675,1973,1,492,,Active,July-21-2024 01:00 PM,July-21-2024 04:00 PM,https://www.redfin.com/CA/Canoga-Park/7748-Jason-Ave-91304/home/3052982,TheMLS,24-415119,N,Y,34.2113419,-118.6352354
MLS Listing,,Single Family Residential,10933 Oak Mountain Pl,Shadow Hills,CA,91040,1625000,4,3.5,659 - Sunland/Tujunga,3880,24941,2004,1,419,500,Active,July-20-2024 01:00 PM,July-20-2024 04:00 PM,https://www.redfin.com/CA/Sunland/10933-Oak-Mountain-Pl-91040/home/8130528,CRMLS,BB24117172,N,Y,34.2627926,-118.3686774
MLS Listing,,Single Family Residential,6510 Clybourn Ave,North Hollywood,CA,91606,915000,3,2.0,North Hollywood,1499,6765,1944,1,610,,Active,July-20-2024 02:00 PM,July-20-2024 04:00 PM,https://www.redfin.com/CA/North-Hollywood/6510-Clybourn-Ave-91606/home/5290110,TheMLS,24-416869,N,Y,34.1889026,-118.3634328
MLS Listing,,Single Family Residential,20548 Hummingbird Ct,Porter Ranch,CA,91326,2300000,5,5.5,PORA - Porter Ranch,3703,7589,2022,1,621,392,Active,July-20-2024 12:00 PM,July-20-2024 03:00 PM,https://www.redfin.com/CA/Porter-Ranch/20548-W-Hummingbird-Ct-91326/home/169915728,CRMLS,OC24147444,N,Y,34.2988752,-118.5817477
MLS Listing,,Condo/Co-op,7777 W 91st St Unit B1159,Playa Del Rey,CA,90293,630000,2,2.0,C31 - Playa Del Rey,1050,311788,1971,1,600,624,Active,July-20-2024 01:00 PM,July-20-2024 04:00 PM,https://www.redfin.com/CA/Playa-del-Rey/7777-W-91st-St-90293/unit-B1159/home/6633868,CRMLS,SB24138260,N,Y,33.9570472,-118.4318049
MLS Listing,,Single Family Residential,16818 Ivyside Pl,Encino,CA,91436,2395000,4,3.5,ENC - Encino,2668,11489,1963,1,898,,Active,July-20-2024 11:00 AM,July-20-2024 02:00 PM,https://www.redfin.com/CA/Encino/16818-Ivyside-Pl-91436/home/4928090,CRMLS,GD24147408,N,Y,34.1346582,-118.4993443
MLS Listing,,Condo/Co-op,4541 Colfax Ave #103,Studio City,CA,91602,1099900,4,3.0,Studio City,1720,16530,2012,1,639,550,Active,,,https://www.redfin.com/CA/North-Hollywood/4541-Colfax-Ave-91602/unit-103/home/79038670,TheMLS,24-415937,N,Y,34.1533245,-118.3880503
MLS Listing,,Single Family Residential,4217 Don Carlos Dr,Los Angeles,CA,90008,4395000,5,5.0,Park Hills Heights,4579,8257,1987,1,960,,Pre On-Market,,,https://www.redfin.com/CA/Los-Angeles/4217-Don-Carlos-Dr-90008/home/6878783,TheMLS,24-415967,N,Y,34.0096093,-118.3559392
MLS Listing,,Condo/Co-op,10560 Wilshire Blvd #1303,Los Angeles,CA,90024,1649000,2,2.5,Westwood - Century City,1935,41107,1982,1,852,2700,Active,,,https://www.redfin.com/CA/Los-Angeles/10560-Wilshire-Blvd-90024/unit-1303/home/6806027,TheMLS,24-415805,N,Y,34.0620191,-118.4325357
MLS Listing,,Single Family Residential,1828 Benedict Canyon Dr,Beverly Hills,CA,90210,1095000,3,3.0,Beverly Hills Post Office,1632,9148,1983,1,671,,Active,,,https://www.redfin.com/CA/Beverly-Hills/1828-Benedict-Canyon-Dr-90210/home/6823681,TheMLS,24-416857,N,Y,34.1037633,-118.4371779
MLS Listing,,Single Family Residential,13163 De Haven Ave,Sylmar,CA,91342,780000,3,2.0,SYL - Sylmar,1129,5718,1963,1,691,,Active,July-20-2024 01:00 PM,July-20-2024 04:00 PM,https://www.redfin.com/CA/Sylmar/13163-De-Haven-Ave-91342/home/5411191,CRMLS,SR24147411,N,Y,34.3095972,-118.4543456
MLS Listing,,Single Family Residential,7038 Los Tilos Rd,Los Angeles,CA,90068,4995000,5,5.5,Sunset Strip - Hollywood Hills West,4618,10021,1929,1,1082,,Active,July-21-2024 02:00 PM,July-21-2024 05:00 PM,https://www.redfin.com/CA/Los-Angeles/7038-Los-Tilos-Rd-90068/home/7114784,TheMLS,24-416801,N,Y,34.1094531,-118.3420779
MLS Listing,,Single Family Residential,11137 Valley Spring Pl,North Hollywood,CA,91602,2195000,3,3.0,Studio City,,14588,1939,1,,,Active,,,https://www.redfin.com/CA/North-Hollywood/11137-Valley-Spring-Pl-91602/home/5230882,TheMLS,24-416679,N,Y,34.1474031,-118.3731881
MLS Listing,,Single Family Residential,5638 Cielo Way,Los Angeles,CA,90028,999999,2,3.0,Hollywood,1394,1000,2014,1,717,142,Active,July-21-2024 02:00 PM,July-21-2024 05:00 PM,https://www.redfin.com/CA/Los-Angeles/5638-Cielo-Way-90028/home/105493037,TheMLS,24-416861,N,Y,34.1025943,-118.3128788
MLS Listing,,Single Family Residential,3954 Farmouth Dr,Los Angeles,CA,90027,3375000,5,5.5,Los Feliz,5524,11146,1989,1,611,,Active,July-21-2024 01:00 PM,July-21-2024 04:00 PM,https://www.redfin.com/CA/Los-Angeles/3954-Farmouth-Dr-90027/home/7135943,TheMLS,24-380887,N,Y,34.1192238,-118.2807549
MLS Listing,,Single Family Residential,5019 Calvin Ave,Tarzana,CA,91356,1847000,4,3.0,TAR - Tarzana,2456,16759,1961,1,752,,Active,July-20-2024 12:00 PM,July-20-2024 04:00 PM,https://www.redfin.com/CA/Tarzana/5019-Calvin-Ave-91356/home/4245636,CRMLS,V1-24701,N,Y,34.1613371,-118.5564807
MLS Listing,,Single Family Residential,1117 W 50th St,Los Angeles,CA,90037,720000,2,1.0,Los Angeles Southwest,1512,5591,1912,1,476,,Active,,,https://www.redfin.com/CA/Los-Angeles/1117-W-50th-St-90037/home/6872052,TheMLS,24-416787,N,Y,33.9980147,-118.2943841
MLS Listing,,Single Family Residential,24310 Belford Ct,West Hills,CA,91307,2795000,5,5.0,WEH - West Hills,4410,90116,1994,1,634,235,Active,,,https://www.redfin.com/CA/West-Hills/24310-Belford-Ct-91307/home/3130968,CRMLS,SR24147406,N,Y,34.2042674,-118.6539533
MLS Listing,,Vacant Land,366 Hollywood Blvd,Hollywood Hills,CA,90068,99000,,,Sunset Strip - Hollywood Hills West,,2539,,1,,,Active,,,https://www.redfin.com/CA/Hollywood/366-Hollywood-Blvd-90068/home/191636839,TheMLS,24-415916,N,Y,34.120441,-118.344709
MLS Listing,,Condo/Co-op,5000 S Centinela Ave #322,Los Angeles,CA,90066,585000,1,1.0,C12 - Marina Del Rey,778,142828,1970,1,752,390,Active,,,https://www.redfin.com/CA/Los-Angeles/5000-S-Centinela-Ave-90066/unit-322/home/6731483,CRMLS,PW24146508,N,Y,33.9869031,-118.414348
MLS Listing,,Single Family Residential,4254 Hayvenhurst Ave,Encino,CA,91436,8899000,8,8.5,ENC - Encino,8000,18553,2024,1,1112,,Active,July-19-2024 11:00 AM,July-19-2024 01:30 PM,https://www.redfin.com/CA/Encino/4254-Hayvenhurst-Ave-91436/home/4942002,CRMLS,SR24147390,N,Y,34.1485528,-118.4950181
MLS Listing,,Single Family Residential,5244 Lathrop St,Los Angeles,CA,90032,849900,4,1.0,621 - El Sereno,991,4951,1938,1,858,,Active,,,https://www.redfin.com/CA/Los-Angeles/5244-Lathrop-St-90032/home/7002302,CRMLS,CV24147377,N,Y,34.0967774,-118.1658629
MLS Listing,,Single Family Residential,20351 Wells Dr,Woodland Hills,CA,91364,2698000,4,3.5,WHLL - Woodland Hills,3200,16487,1962,1,843,,Active,July-19-2024 01:00 PM,July-19-2024 04:00 PM,https://www.redfin.com/CA/Woodland-Hills/20351-Wells-Dr-91364/home/4161406,CRMLS,TR24147285,N,Y,34.1584713,-118.5768072
MLS Listing,,Single Family Residential,721 W 28th St,San Pedro,CA,90731,750000,3,1.0,181 - Point Fermin,900,5000,1920,1,833,,Active,,,https://www.redfin.com/CA/San-Pedro/721-W-28th-St-90731/home/7695934,CRMLS,SB24147063,N,Y,33.7185351,-118.2921831
MLS Listing,,Multi-Family (2-4 Unit),4442 Mettler St,Los Angeles,CA,90011,483000,4,3.0,C37 - Metropolitan South,1958,4993,1910,1,247,,Active,,,https://www.redfin.com/CA/Los-Angeles/4442-Mettler-St-90011/home/6923457,CRMLS,DW24146844,N,Y,34.0026592,-118.266247
MLS Listing,,Single Family Residential,5912 Village Dr,Playa Vista,CA,90094,4595000,4,5.0,Playa Vista,4279,4071,2017,1,1074,405,Active,July-21-2024 01:00 PM,July-21-2024 04:00 PM,https://www.redfin.com/CA/Los-Angeles/5912-Village-Dr-90094/home/143519177,TheMLS,24-410363,N,Y,33.9758664,-118.414564
MLS Listing,,Single Family Residential,6370 W 77th St,Los Angeles,CA,90045,1799000,3,2.0,C29 - Westchester,1623,11105,1951,1,1108,2,Active,July-21-2024 01:00 PM,July-21-2024 04:00 PM,https://www.redfin.com/CA/Los-Angeles/6370-W-77th-St-90045/home/6612496,CRMLS,SR24147373,N,Y,33.972412,-118.398843
MLS Listing,,Single Family Residential,7036-7038 Aura Ave,Reseda,CA,91335,1299000,3,2.0,RES - Reseda,2150,6272,1952,1,604,,Active,July-20-2024 01:00 PM,July-20-2024 05:00 PM,https://www.redfin.com/CA/Reseda/7036-Aura-Ave-91335/home/3895584,CRMLS,SR24147287,N,Y,34.1986018,-118.5544006
MLS Listing,,Condo/Co-op,3625 Fredonia Dr #2,Los Angeles,CA,90068,750000,1,1.0,Sunset Strip - Hollywood Hills West,765,26400,1963,1,980,828,Active,July-20-2024 11:00 AM,July-20-2024 01:00 PM,https://www.redfin.com/CA/Los-Angeles/3625-Fredonia-Dr-90068/unit-2/home/5310713,TheMLS,24-415479,N,Y,34.1337367,-118.3598488
MLS Listing,,Single Family Residential,2112 Camden Ave,Los Angeles,CA,90025,1795000,4,3.5,Westwood - Century City,2378,6702,1946,1,755,,Pre On-Market,,,https://www.redfin.com/CA/Los-Angeles/2112-Camden-Ave-90025/home/6800574,TheMLS,24-415819,N,Y,34.0423909,-118.4368833
MLS Listing,,Townhouse,20000 Sherman Way Unit E,Winnetka,CA,91306,635000,3,3.5,WIN - Winnetka,1766,72905,1989,1,360,552,Active,,,https://www.redfin.com/CA/Winnetka/20000-Sherman-Way-91306/unit-E/home/3929522,CRMLS,SR24146644,N,Y,34.2007405,-118.5691973
MLS Listing,,Condo/Co-op,14115 Moorpark St #103,Sherman Oaks,CA,91423,799999,2,2.0,SO - Sherman Oaks,1250,23486,1979,1,640,531,Pre On-Market,,,https://www.redfin.com/CA/Sherman-Oaks/14115-Moorpark-St-91423/unit-103/home/4835153,CRMLS,SR24146669,N,Y,34.1506909,-118.4404424
MLS Listing,,Condo/Co-op,5050 Coldwater Canyon Ave #103,Sherman Oaks,CA,91423,850000,3,2.5,SO - Sherman Oaks,2579,31789,1966,1,330,620,Active,July-21-2024 01:00 PM,July-21-2024 04:00 PM,https://www.redfin.com/CA/Sherman-Oaks/5050-Coldwater-Canyon-Ave-91423/unit-103/home/5215696,CRMLS,SR24146940,N,Y,34.1626142,-118.4132164
MLS Listing,,Condo/Co-op,5400 Lindley Ave #214,Encino,CA,91316,435000,1,1.0,ENC - Encino,885,55277,1970,1,492,314,Active,,,https://www.redfin.com/CA/Encino/5400-Lindley-Ave-91316/unit-214/home/4116994,CRMLS,SR24147326,N,Y,34.1687215,-118.5266334
MLS Listing,,Single Family Residential,22616 Zaltana St,Chatsworth,CA,91311,4940000,6,6.0,Chatsworth,8326,99628,1996,1,593,657,Active,,,https://www.redfin.com/CA/Chatsworth/22616-Zaltana-St-91311/home/5981661,TheMLS,24-415257,N,Y,34.2775711,-118.6206319
MLS Listing,,Condo/Co-op,10501 Wilshire Blvd #1510,Los Angeles,CA,90024,849000,2,2.0,Westwood - Century City,1252,42205,1963,1,678,1958,Active,,,https://www.redfin.com/CA/Los-Angeles/10501-Wilshire-Blvd-90024/unit-1510/home/17227595,TheMLS,24-413872,N,Y,34.0640529,-118.432715
MLS Listing,,Single Family Residential,5465 Hillcrest Dr,View Park,CA,90043,875000,3,1.0,VWPK - View Park,1536,7299,1922,1,570,,Active,July-21-2024 03:00 PM,July-21-2024 05:00 PM,https://www.redfin.com/CA/Los-Angeles/5465-Hillcrest-Dr-90043/home/6865572,CRMLS,SR24139717,N,Y,33.9911918,-118.337001
MLS Listing,,Single Family Residential,3438 Adina Dr,Los Angeles,CA,90068,2399000,4,2.0,Sunset Strip - Hollywood Hills West,2272,8072,1949,1,1056,,Active,July-20-2024 02:00 PM,July-20-2024 05:00 PM,https://www.redfin.com/CA/Los-Angeles/3438-Adina-Dr-90068/home/5311785,TheMLS,24-416681,N,Y,34.1289284,-118.3531861
MLS Listing,,Multi-Family (2-4 Unit),818 N FICKETT,Los Angeles,CA,90033,859999,5,3.0,BOYH - Boyle Heights,1484,3500,1925,1,580,,Pre On-Market,,,https://www.redfin.com/CA/Los-Angeles/818-N-Fickett-St-90033/home/6938872,CRMLS,CV24147311,N,Y,34.0507687,-118.202555
MLS Listing,,Single Family Residential,1508 Roscomare Rd,Los Angeles,CA,90077,6250000,4,5.0,Bel Air - Holmby Hills,6000,18267,,1,1042,,Active,July-21-2024 02:00 PM,July-21-2024 05:00 PM,https://www.redfin.com/CA/Los-Angeles/1508-Roscomare-Rd-90077/home/6830727,TheMLS,24-416141,N,Y,34.0967451,-118.4640499
MLS Listing,,Condo/Co-op,10749 New Haven St #19,Sun Valley,CA,91352,299000,1,1.0,SUNV - Sun Valley,695,31361,1965,1,430,238,Active,July-20-2024 11:00 AM,July-20-2024 01:00 PM,https://www.redfin.com/CA/Sun-Valley/10749-New-Haven-St-91352/unit-19/home/17245862,CRMLS,GD24146224,N,Y,34.2266978,-118.3657639
MLS Listing,,Single Family Residential,14106 Gruen St,Arleta,CA,91331,1450000,5,3.5,ARL - Arleta,2853,6794,1952,1,508,,Active,,,https://www.redfin.com/CA/Arleta/14106-Gruen-St-91331/home/5648545,CRMLS,SR24146521,N,Y,34.2452686,-118.4401559
MLS Listing,,Single Family Residential,1255 W 102nd St,Los Angeles,CA,90044,699000,4,2.0,C36 - Metropolitan Southwest,1452,7004,1925,1,481,,Active,July-20-2024 12:00 PM,July-20-2024 03:00 PM,https://www.redfin.com/CA/Los-Angeles/1255-W-102nd-St-90044/home/7309670,CRMLS,PW24140833,N,Y,33.944319,-118.2982465
MLS Listing,,Single Family Residential,6108 Springvale Dr,Los Angeles,CA,90042,950000,2,1.0,632 - Highland Park,972,5161,1917,1,977,,Pre On-Market,,,https://www.redfin.com/CA/Los-Angeles/6108-Springvale-Dr-90042/home/7086920,CRMLS,PW24147282,N,Y,34.123083,-118.187224
MLS Listing,,Single Family Residential,11203 Califa St,North Hollywood,CA,91601,1195000,2,1.0,NHO - North Hollywood,884,6251,1932,1,1352,,Active,,,https://www.redfin.com/CA/North-Hollywood/11203-Califa-St-91601/home/5144720,CRMLS,PF24147261,N,Y,34.1777943,-118.3748415
MLS Listing,,Multi-Family (2-4 Unit),244 N Chicago St,Los Angeles,CA,90033,1600000,8,5.0,BOYH - Boyle Heights,3741,9001,1901,1,428,,Active,,,https://www.redfin.com/CA/Los-Angeles/244-N-Chicago-St-90033/home/6941235,CRMLS,WS24134098,N,Y,34.0472727,-118.2104854
MLS Listing,,Single Family Residential,3428 W Martin Luther King Jr Blvd,Los Angeles,CA,90008,995000,3,2.0,PHHT - Park Hills Heights,1745,6011,1937,1,570,,Active,July-20-2024 11:00 AM,July-20-2024 02:00 PM,https://www.redfin.com/CA/Leimert-Park/3428-W-Martin-Luther-King-Junior-Blvd-90008/home/191619226,CRMLS,DW24146306,N,Y,34.0106358,-118.3324639
MLS Listing,,Multi-Family (5+ Unit),823 Lagoon Ave,Wilmington,CA,90744,1795000,10,8.0,195 - West Wilmington,5301,7514,1965,1,339,,Active,,,https://www.redfin.com/CA/Wilmington/823-Lagoon-Ave-90744/home/7676603,CRMLS,IV24147249,N,Y,33.7804109,-118.2679046
MLS Listing,,Single Family Residential,1716 N Dillon St,Los Angeles,CA,90026,1498000,2,2.0,Silver Lake - Echo Park,1359,5955,1937,1,1102,,Active,July-18-2024 05:30 PM,July-18-2024 07:30 PM,https://www.redfin.com/CA/Los-Angeles/1716-N-Dillon-St-90026/home/7062201,TheMLS,24-415798,N,Y,34.0911939,-118.2709391
MLS Listing,,Single Family Residential,20638 Lull St,Winnetka,CA,91306,1050000,4,3.0,WIN - Winnetka,2462,9494,1961,1,426,,Active,July-20-2024 12:00 PM,July-20-2024 04:00 PM,https://www.redfin.com/CA/Winnetka/20638-Lull-St-91306/home/3695061,CRMLS,SR24146384,N,Y,34.2089895,-118.5833515
MLS Listing,,Multi-Family (5+ Unit),1801 Albion St,Los Angeles,CA,90031,1200000,8,4.0,677 - Lincoln Hts,3556,8309,1890,1,337,,Active,,,https://www.redfin.com/CA/Los-Angeles/1801-Albion-St-90031/home/160513127,CRMLS,CV24147159,N,Y,34.0698959,-118.2211514
MLS Listing,,Vacant Land,448 W Beech St,Los Angeles,CA,90065,250000,,,Mt Washington,,6754,,1,,,Active,,,https://www.redfin.com/CA/Los-Angeles/448-W-Beech-ST-90065/home/189107921,TheMLS,24-416761,N,Y,34.091205,-118.218148
MLS Listing,,Single Family Residential,1243 W 98th St,Los Angeles,CA,90044,579999,3,2.0,Metropolitan Southwest,1202,4101,1923,1,483,,Active,,,https://www.redfin.com/CA/Los-Angeles/1243-W-98th-St-90044/home/7307548,TheMLS,24-416461,N,Y,33.9471508,-118.2974807
MLS Listing,,Multi-Family (5+ Unit),3827 Tilden Ave,Culver City,CA,90232,4400000,16,10.0,Culver City,9340,10927,1957,1,471,,Active,,,https://www.redfin.com/CA/Culver-City/3827-Tilden-Ave-90232/home/6726382,TheMLS,24-416789,N,Y,34.0134217,-118.4145304
MLS Listing,,Single Family Residential,10813 Sarah St,Toluca Lake,CA,91602,1295000,3,3.5,Toluca Lake,1927,1867,2019,1,672,182,Active,July-21-2024 02:00 PM,July-21-2024 05:00 PM,https://www.redfin.com/CA/North-Hollywood/10813-Sarah-St-91602/home/173160408,TheMLS,24-415373,N,Y,34.1541199,-118.3662532
MLS Listing,,Condo/Co-op,9659 Via Torino #149,Burbank,CA,91504,719000,4,3.0,SUNV - Sun Valley,1602,228602,1975,1,449,780,Active,,,https://www.redfin.com/CA/Burbank/9659-Via-Torino-91504/unit-149/home/5264206,CRMLS,P1-18537,N,Y,34.2109367,-118.3410166
MLS Listing,,Single Family Residential,4437 Balboa Ave,Encino,CA,91316,3995000,6,6.5,Encino,6632,29052,1980,1,602,,Active,,,https://www.redfin.com/CA/Encino/4437-Balboa-Ave-91316/home/4932730,TheMLS,24-410991,N,Y,34.1522619,-118.5050543
MLS Listing,,Townhouse,821 S Gramercy Pl #2,Los Angeles,CA,90005,905000,3,2.5,Hancock Park-Wilshire,1631,7505,2003,1,555,292,Active,,,https://www.redfin.com/CA/Los-Angeles/821-S-Gramercy-Pl-90005/unit-2/home/8140887,TheMLS,24-416541,N,Y,34.0573832,-118.3136371
MLS Listing,,Single Family Residential,7417 W 81st St,Los Angeles,CA,90045,1899000,5,4.0,Westchester,3087,6008,1952,1,615,,Active,July-21-2024 02:00 PM,July-21-2024 05:00 PM,https://www.redfin.com/CA/Los-Angeles/7417-W-81st-St-90045/home/6621531,TheMLS,24-415235,N,Y,33.9632332,-118.427072
MLS Listing,,Single Family Residential,4101 Tarrybrae Ter,Tarzana,CA,91356,1855000,5,3.5,Tarzana,2463,14065,1969,1,753,,Active,July-21-2024 02:00 PM,July-21-2024 05:00 PM,https://www.redfin.com/CA/Tarzana/4101-Tarrybrae-Ter-91356/home/4273602,TheMLS,24-416139,N,Y,34.1440733,-118.5616301
MLS Listing,,Condo/Co-op,7250 Franklin Ave #506,Los Angeles,CA,90046,480000,0,1.0,C20 - Hollywood,492,53531,1964,1,976,857,Active,,,https://www.redfin.com/CA/Los-Angeles/7250-Franklin-Ave-90046/unit-506/home/7114282,CRMLS,CV24145593,N,Y,34.1032164,-118.3474659
MLS Listing,,Single Family Residential,654 Broadway St,Venice,CA,90291,1225000,2,1.5,Venice,1060,5202,,1,1156,425,Active,,,https://www.redfin.com/CA/Venice/654-Broadway-St-90291/home/184287778,TheMLS,24-416389,N,Y,33.9953784,-118.4663867
MLS Listing,,Townhouse,4630 Woodley Ave #107,Encino,CA,91436,1099000,3,2.5,ENC - Encino,2478,34058,1991,1,444,723,Pre On-Market,,,https://www.redfin.com/CA/Encino/4630-Woodley-Ave-91436/unit-107/home/4907841,CRMLS,SR24146794,N,Y,34.1557288,-118.4833112
MLS Listing,,Multi-Family (2-4 Unit),3335 Folsom St,Los Angeles,CA,90063,1099800,14,8.0,699 - Not Defined,5244,14148,1880,1,210,,Active,,,https://www.redfin.com/CA/Los-Angeles/3335-Folsom-St-90063/home/77517473,CRMLS,DW24146901,N,Y,34.0437502,-118.1914812
MLS Listing,,Single Family Residential,3925 Sepulveda Blvd,Sherman Oaks,CA,91403,3975000,5,5.5,Sherman Oaks,4793,31171,1974,1,829,,Active,July-21-2024 02:00 PM,July-21-2024 05:00 PM,https://www.redfin.com/CA/Sherman-Oaks/3925-Sepulveda-Blvd-91403/home/4927247,TheMLS,24-416361,N,Y,34.1418156,-118.475802
MLS Listing,,Single Family Residential,855 N Beverly Glen Blvd,Los Angeles,CA,90077,1399999,3,2.0,Bel Air - Holmby Hills,1441,8910,1948,1,972,,Active,,,https://www.redfin.com/CA/Los-Angeles/855-N-Beverly-Glen-Blvd-90077/home/6830313,TheMLS,24-416695,N,Y,34.0910509,-118.4389188
MLS Listing,,Multi-Family (5+ Unit),11833 - 11837 Laurelwood Dr,Studio City,CA,91604,9150000,41,21.0,Studio City,19143,38923,1949,1,478,,Active,,,https://www.redfin.com/CA/Studio-City/11833-Laurelwood-Dr-91604/home/5242326,TheMLS,24-416587,N,Y,34.1410964,-118.3903756
MLS Listing,,Single Family Residential,952 S Citrus Ave,Los Angeles,CA,90036,1975000,5,3.0,Hancock Park-Wilshire,2606,7778,1926,1,758,,Active,July-21-2024 01:00 PM,July-21-2024 04:00 PM,https://www.redfin.com/CA/Los-Angeles/952-S-Citrus-Ave-90036/home/6912418,TheMLS,24-415015,N,Y,34.0573386,-118.3408914
MLS Listing,,Single Family Residential,13716 W Sunset Blvd,Pacific Palisades,CA,90272,4595000,4,5.0,Pacific Palisades,3393,15010,1952,1,1354,,Pre On-Market,,,https://www.redfin.com/CA/Pacific-Palisades/13716-W-Sunset-Blvd-90272/home/6839463,TheMLS,24-416065,N,Y,34.0503624,-118.5049473
MLS Listing,,Single Family Residential,3923 Albright Ave,Los Angeles,CA,90066,1369000,3,1.0,Palms - Mar Vista,1127,6252,1947,1,1215,,Active,July-21-2024 01:00 PM,July-21-2024 04:00 PM,https://www.redfin.com/CA/Los-Angeles/3923-Albright-Ave-90066/home/6726883,TheMLS,24-416179,N,Y,34.0084952,-118.419068
MLS Listing,,Single Family Residential,4258 W 58th Pl,Los Angeles,CA,90043,1150000,3,2.0,Park Hills Heights,1518,5375,1941,1,758,,Pre On-Market,,,https://www.redfin.com/CA/Los-Angeles/4258-W-58th-Pl-90043/home/6446680,TheMLS,24-413925,N,Y,33.9877496,-118.3496564
MLS Listing,,Single Family Residential,2229 San Ysidro Dr,Beverly Hills,CA,90210,4295000,5,4.0,Beverly Hills Post Office,3984,11407,1968,1,1078,,Active,,,https://www.redfin.com/CA/Beverly-Hills/2229-San-Ysidro-Dr-90210/home/6833536,TheMLS,24-416663,N,Y,34.1118234,-118.4248429
MLS Listing,,Single Family Residential,6101 Shirley Ave,Tarzana,CA,91356,1945000,3,2.0,TAR - Tarzana,1786,26640,1962,1,1089,,Pre On-Market,,,https://www.redfin.com/CA/Tarzana/6101-Shirley-Ave-91356/home/4041770,CRMLS,SR24146741,N,Y,34.1812105,-118.558573
MLS Listing,,Single Family Residential,8383 Denise Ln,West Hills,CA,91304,1184000,4,3.0,WEH - West Hills,2023,8293,1969,1,585,240,Pre On-Market,,,https://www.redfin.com/CA/West-Hills/8383-Denise-Ln-91304/home/8094470,CRMLS,SR24143260,N,Y,34.222034,-118.6318258
MLS Listing,,Single Family Residential,18067 Karen Dr,Encino,CA,91316,4850000,5,7.0,Encino,5743,18203,1948,1,845,,Active,,,https://www.redfin.com/CA/Encino/18067-Karen-Dr-91316/home/4299352,TheMLS,24-416715,N,Y,34.155582,-118.5270808
MLS Listing,,Multi-Family (5+ Unit),5418 Lemon Grove Ave,Los Angeles,CA,90038,1895000,9,9.0,Hollywood,4681,7002,1923,1,405,,Active,,,https://www.redfin.com/CA/Los-Angeles/5418-Lemon-Grove-Ave-90038/home/7108772,TheMLS,24-416577,N,Y,34.0864212,-118.3122091
MLS Listing,,Vacant Land,1016 Stradella Rd,Los Angeles,CA,90077,5750000,,,Bel Air - Holmby Hills,,19784,,1,,,Active,,,https://www.redfin.com/CA/Los-Angeles/1016-Stradella-Rd-90077/home/18544803,TheMLS,24-416491,N,Y,34.090052,-118.452777
MLS Listing,,Single Family Residential,13015 Stagg St,North Hollywood,CA,91605,999000,4,2.0,NHO - North Hollywood,1942,5347,1964,1,514,,Active,July-21-2024 02:00 PM,July-21-2024 05:00 PM,https://www.redfin.com/CA/North-Hollywood/13015-Stagg-St-91605/home/4963253,CRMLS,SR24146623,N,Y,34.2103318,-118.4164067
MLS Listing,,Single Family Residential,2515 E 111th St,Los Angeles,CA,90059,700000,4,2.0,699 - Not Defined,1330,6276,1972,1,526,,Pre On-Market,,,https://www.redfin.com/CA/Los-Angeles/2515-E-111th-St-90059/home/7314268,CRMLS,PW24147068,N,Y,33.9347657,-118.2273579
MLS Listing,,Single Family Residential,109 S Crescent Heights Blvd,Los Angeles,CA,90048,2990000,3,2.5,Beverly Center-Miracle Mile,2035,6301,1933,1,1469,,Active,,,https://www.redfin.com/CA/Los-Angeles/109-S-Crescent-Heights-Blvd-90048/home/7093462,TheMLS,24-415579,N,Y,34.0738958,-118.3661748
MLS Listing,,Townhouse,736 W Santa Cruz #3,San Pedro,CA,90731,499900,2,1.5,187 - Holy Trinity,1044,6000,1989,1,479,100,Active,,,https://www.redfin.com/CA/San-Pedro/736-W-Santa-Cruz-St-90731/unit-3/home/7687863,CRMLS,PV24146531,N,Y,33.7447768,-118.2932543
MLS Listing,,Multi-Family (2-4 Unit),2806 W 43rd Pl,Los Angeles,CA,90008,950000,4,2.0,Park Hills Heights,2225,4274,1928,1,427,,Active,July-21-2024 11:00 AM,July-21-2024 02:00 PM,https://www.redfin.com/CA/Los-Angeles/2806-W-43rd-Pl-90008/home/6876365,TheMLS,24-405521,N,Y,34.0042431,-118.3238859
MLS Listing,,Multi-Family (2-4 Unit),5112 Edgewood Pl,Los Angeles,CA,90019,1699000,5,4.0,Hancock Park-Wilshire,3470,5030,1925,1,490,,Active,,,https://www.redfin.com/CA/Los-Angeles/5112-Edgewood-Pl-90019/home/6912745,TheMLS,24-416359,N,Y,34.0546454,-118.3424765
MLS Listing,,Vacant Land,2630 Adkins Ave,Los Angeles,CA,90032,180000,,,621 - El Sereno,,5772,,1,,,Active,,,https://www.redfin.com/CA/Los-Angeles/2630-Adkins-Ave-90032/home/22129227,CRMLS,WS24146144,N,Y,34.07776,-118.17229
MLS Listing,,Single Family Residential,2021 Ridgeview Ave,Los Angeles,CA,90041,1399900,3,3.5,618 - Eagle Rock,2060,8780,1923,1,680,,Active,July-20-2024 01:00 PM,July-20-2024 04:00 PM,https://www.redfin.com/CA/Los-Angeles/2021-Ridgeview-Ave-90041/home/7178577,CRMLS,PW24143316,N,Y,34.1306383,-118.2117377
MLS Listing,,Single Family Residential,20947 Brighton Ave,Torrance,CA,90501,799000,3,1.0,122 - Harbor Gateway,1105,6758,1951,1,723,,Active,July-18-2024 12:00 PM,July-18-2024 03:00 PM,https://www.redfin.com/CA/Torrance/20947-Brighton-Ave-90501/home/7648015,CRMLS,IN24145013,N,Y,33.838424,-118.3008629
MLS Listing,,Single Family Residential,6005 S Sherbourne Dr,Los Angeles,CA,90056,2000000,4,3.0,,3056,8097,1956,1,654,,Active,,,https://www.redfin.com/CA/Los-Angeles/6005-S-Sherbourne-Dr-90056/home/6595187,SDMLS,240016510,N,Y,33.9861732,-118.377142
MLS Listing,,Single Family Residential,18301 Chatsworth St,Porter Ranch,CA,91326,1199999,5,3.0,PORA - Porter Ranch,2591,10706,1959,1,463,,Active,,,https://www.redfin.com/CA/Porter-Ranch/18301-Chatsworth-St-91326/home/5787117,CRMLS,AR24146682,N,Y,34.2648309,-118.5320294
MLS Listing,,Single Family Residential,13455 Bassett St,Valley Glen,CA,91405,1299000,3,2.0,VG - Valley Glen,2062,10352,1953,1,630,,Active,,,https://www.redfin.com/CA/Van-Nuys/13455-Bassett-St-91405/home/5085844,CRMLS,SR24146964,N,Y,34.1959875,-118.4266494
MLS Listing,,Single Family Residential,11947 Beatrice St,Culver City,CA,90230,2100000,4,3.0,Culver City,1918,5749,2022,1,1095,,Active,July-21-2024 01:00 PM,July-21-2024 05:00 PM,https://www.redfin.com/CA/Culver-City/11947-Beatrice-St-90230/home/6730482,TheMLS,24-416503,N,Y,33.9855527,-118.406152
MLS Listing,,Single Family Residential,10442 La Tuna Canyon Rd,Sun Valley,CA,91352,1400000,5,3.0,SUNV - Sun Valley,2912,15599,1941,1,481,,Active,July-20-2024 01:00 PM,July-20-2024 04:00 PM,https://www.redfin.com/CA/Sun-Valley/10442-La-Tuna-Canyon-Rd-91352/home/5495887,CRMLS,BB24144198,N,Y,34.2336535,-118.3588643
MLS Listing,,Single Family Residential,1237 Hilldale Ave Unit 1/2,West Hollywood,CA,90069,3294000,5,4.0,Sunset Strip - Hollywood Hills West,2979,5793,1966,1,1106,,Active,,,https://www.redfin.com/CA/Los-Angeles/1237-Hilldale-Ave-90069/unit-1-2/home/191618710,TheMLS,24-416539,N,Y,34.0925276,-118.3869876
MLS Listing,,Condo/Co-op,9920 Jordan Ave #25,Chatsworth,CA,91311,475000,2,2.0,Chatsworth,875,23222,1986,1,543,470,Active,July-20-2024 01:00 PM,July-20-2024 05:00 PM,https://www.redfin.com/CA/Chatsworth/9920-Jordan-Ave-91311/unit-25/home/5841711,TheMLS,24-410319,N,Y,34.2507685,-118.6035932
MLS Listing,,Condo/Co-op,4487 Colbath Ave #309,Sherman Oaks,CA,91423,679900,2,2.0,SO - Sherman Oaks,1336,37153,1962,1,509,598,Pre On-Market,,,https://www.redfin.com/CA/Sherman-Oaks/4487-Colbath-Ave-91423/unit-309/home/4858402,CRMLS,SR24146955,N,Y,34.1526114,-118.4371728
MLS Listing,,Townhouse,1433 Lomita Blvd #4,Harbor City,CA,90710,753000,3,2.5,124 - Harbor City,1456,103672,2005,1,517,338,Active,,,https://www.redfin.com/CA/Harbor-City/1433-Lomita-Blvd-90710/unit-4/home/8150807,CRMLS,DW24146972,N,Y,33.7981308,-118.3025462
MLS Listing,,Condo/Co-op,1812 Overland Ave #301,Los Angeles,CA,90025,799000,2,2.0,Westwood - Century City,1220,12816,1980,1,655,500,Active,July-21-2024 02:00 PM,July-21-2024 05:00 PM,https://www.redfin.com/CA/Los-Angeles/1812-Overland-Ave-90025/unit-301/home/6799500,TheMLS,24-415833,N,Y,34.0509599,-118.4321996
MLS Listing,,Single Family Residential,10572 Putney Rd,Los Angeles,CA,90064,3895000,5,4.0,Cheviot Hills - Rancho Park,3369,7005,1946,1,1156,,Active,July-19-2024 12:00 PM,July-19-2024 02:00 PM,https://www.redfin.com/CA/Los-Angeles/10572-Putney-Rd-90064/home/6797226,TheMLS,24-416595,N,Y,34.0393798,-118.4190959
MLS Listing,,Single Family Residential,5938 Southside Dr,Los Angeles,CA,90022,695888,2,1.0,699 - Not Defined,889,4428,1940,1,783,,Active,,,https://www.redfin.com/CA/Los-Angeles/5938-Southside-Dr-90022/home/7432041,CRMLS,MB24138391,N,Y,34.0123345,-118.1447464
MLS Listing,,Single Family Residential,525 W 119th St,Los Angeles,CA,90044,1000000,6,3.0,C36 - Metropolitan Southwest,2680,9328,1947,1,373,,Active,,,https://www.redfin.com/CA/Los-Angeles/525-W-119th-St-90044/home/7323310,CRMLS,IG24146916,N,Y,33.9252534,-118.2835867
MLS Listing,,Single Family Residential,7913 Lasaine Ave,Northridge,CA,91325,679000,2,1.0,NR - Northridge,1029,6203,1951,1,660,,Active,July-20-2024 02:00 PM,July-20-2024 05:00 PM,https://www.redfin.com/CA/Northridge/7913-Lasaine-Ave-91325/home/4319087,CRMLS,SR24143999,N,Y,34.2143433,-118.5111429
MLS Listing,,Single Family Residential,5163 Valjean Ave,Encino,CA,91436,4588888,6,6.5,Encino,6153,10188,2024,1,746,,Active,July-21-2024 02:00 PM,July-21-2024 05:00 PM,https://www.redfin.com/CA/Encino/5163-Valjean-Ave-91436/home/4792141,TheMLS,24-416487,N,Y,34.1638271,-118.4861425
MLS Listing,,Condo/Co-op,328 Culver Blvd Unit B,Playa Del Rey,CA,90293,849000,1,1.0,Playa Del Rey,902,5659,1979,1,941,340,Active,July-21-2024 02:00 PM,July-21-2024 05:00 PM,https://www.redfin.com/CA/Playa-del-Rey/328-Culver-Blvd-90293/unit-B/home/6624944,TheMLS,24-415245,N,Y,33.9600445,-118.4468071
MLS Listing,,Single Family Residential,16520 Minnehaha St,Granada Hills,CA,91344,775000,4,2.0,GH - Granada Hills,1384,7507,1958,1,560,,Active,July-20-2024 01:00 PM,July-20-2024 03:00 PM,https://www.redfin.com/CA/Granada-Hills/16520-Minnehaha-St-91344/home/5729060,CRMLS,SR24144787,N,Y,34.2601479,-118.491651
MLS Listing,,Single Family Residential,835 E Bonds St,Carson,CA,90745,699000,4,2.0,139 - South Carson,1146,4932,1960,1,610,,Pre On-Market,,,https://www.redfin.com/CA/Carson/835-E-Bonds-St-90745/home/7668305,CRMLS,DW24146893,N,Y,33.8056206,-118.2589599
MLS Listing,,Condo/Co-op,4750 Templeton St #1216,Los Angeles,CA,90032,549000,2,3.0,621 - El Sereno,1259,28205,1995,1,436,675,Active,July-20-2024 01:00 PM,July-20-2024 04:00 PM,https://www.redfin.com/CA/Los-Angeles/4750-Templeton-St-90032/unit-1216/home/6949103,CRMLS,CV24141630,N,Y,34.0822818,-118.1820342
MLS Listing,,Single Family Residential,10935 S Wilton Pl,Los Angeles,CA,90047,630000,3,1.0,C34 - Los Angeles Southwest,1208,5478,1947,1,522,,Active,,,https://www.redfin.com/CA/Los-Angeles/10935-S-Wilton-Pl-90047/home/7319460,CRMLS,CV24146220,N,Y,33.9363066,-118.3156478
MLS Listing,,Condo/Co-op,1234 Wilshire Blvd #119,Los Angeles,CA,90017,530000,1,1.0,Downtown L.A.,960,71352,2006,1,552,793,Active,,,https://www.redfin.com/CA/Los-Angeles/1234-Wilshire-Blvd-90017/unit-119/home/12291707,TheMLS,24-415227,N,Y,34.0532098,-118.2659385
MLS Listing,,Single Family Residential,5077 Campo Rd,Woodland Hills,CA,91364,2199000,3,2.5,WHLL - Woodland Hills,2978,15654,1980,1,738,,Active,July-20-2024 12:00 PM,July-20-2024 03:00 PM,https://www.redfin.com/CA/Woodland-Hills/5077-Campo-Rd-91364/home/4180004,CRMLS,SR24146619,N,Y,34.1602744,-118.5991026
MLS Listing,,Single Family Residential,2215 Wellesley Ave,Los Angeles,CA,90064,2850000,3,3.0,West L.A.,2107,9692,1942,1,1353,,Active,,,https://www.redfin.com/CA/Los-Angeles/2215-Wellesley-Ave-90064/home/6756386,TheMLS,24-416572,N,Y,34.0305131,-118.4548381
MLS Listing,,Single Family Residential,455 Lorraine Blvd,Los Angeles,CA,90020,15000000,6,8.0,Hancock Park-Wilshire,9329,35987,1913,1,1608,,Active,,,https://www.redfin.com/CA/Los-Angeles/455-Lorraine-Blvd-90020/home/7090318,TheMLS,24-415729,N,Y,34.0656872,-118.3203316
MLS Listing,,Single Family Residential,4020 Alonzo Ave,Encino,CA,91316,3500000,6,5.0,Encino,4973,17571,1976,1,704,,Active,July-20-2024 01:00 PM,July-20-2024 04:00 PM,https://www.redfin.com/CA/Encino/4020-Alonzo-Ave-91316/home/4305823,TheMLS,24-416229,N,Y,34.143467,-118.525742
MLS Listing,,Single Family Residential,225 Branch St,Los Angeles,CA,90042,789000,2,1.0,632 - Highland Park,737,4783,1907,1,1071,,Pre On-Market,July-27-2024 12:00 PM,July-27-2024 04:00 PM,https://www.redfin.com/CA/Los-Angeles/225-Branch-St-90042/home/7085532,CRMLS,DW24145552,N,Y,34.1183384,-118.1862923
MLS Listing,,Single Family Residential,1422 N Kenter Ave,Los Angeles,CA,90049,2499000,4,3.0,Brentwood,2273,7200,1956,1,1099,8,Active,July-21-2024 02:00 PM,July-21-2024 05:00 PM,https://www.redfin.com/CA/Los-Angeles/1422-N-Kenter-Ave-90049/home/6860319,TheMLS,24-411685,N,Y,34.0801126,-118.4936165
MLS Listing,,Single Family Residential,1971 E 87th St,Los Angeles,CA,90002,539900,2,2.0,C37 - Metropolitan South,468,1888,1924,1,1154,,Active,July-18-2024 12:00 PM,July-18-2024 05:00 PM,https://www.redfin.com/CA/Los-Angeles/1971-E-87th-St-90002/home/7299495,CRMLS,DW24146720,N,Y,33.958665,-118.2367306
MLS Listing,,Single Family Residential,10432 La Tuna Canyon Rd,Sun Valley,CA,91352,1299999,3,2.0,SUNV - Sun Valley,1508,15604,1948,1,862,,Active,July-20-2024 11:00 AM,July-20-2024 01:00 PM,https://www.redfin.com/CA/Sun-Valley/10432-La-Tuna-Canyon-Rd-91352/home/5495876,CRMLS,GD24146768,N,Y,34.2334667,-118.3585206
MLS Listing,,Single Family Residential,7555 Mulholland Dr,Los Angeles,CA,90046,2195000,4,3.5,Sunset Strip - Hollywood Hills West,2557,8149,1950,1,858,,Active,July-21-2024 02:00 PM,July-21-2024 05:00 PM,https://www.redfin.com/CA/Los-Angeles/7555-Mulholland-Dr-90046/home/5312087,TheMLS,24-410661,N,Y,34.1266553,-118.3603107
MLS Listing,,Townhouse,10040 Larwin Ave #2,Chatsworth,CA,91311,739000,4,3.0,CHT - Chatsworth,2138,153215,1972,1,346,698,Active,July-21-2024 01:00 PM,July-21-2024 04:00 PM,https://www.redfin.com/CA/Chatsworth/10040-Larwin-Ave-91311/unit-2/home/5801723,CRMLS,SR24146513,N,Y,34.254307,-118.617773
MLS Listing,,Single Family Residential,10830 Mcvine Ave,Sunland,CA,91040,1100000,5,3.0,659 - Sunland/Tujunga,2717,4032,2002,1,405,,Pre On-Market,July-27-2024 01:00 PM,July-27-2024 04:00 PM,https://www.redfin.com/CA/Sunland/10830-McVine-Ave-91040/home/8130573,CRMLS,DW24143474,N,Y,34.2659789,-118.311172
MLS Listing,,Condo/Co-op,2980 Ripple Pl #201,Los Angeles,CA,90039,1099000,4,3.0,Atwater,1990,12352,2016,1,552,600,Active,July-20-2024 02:00 PM,July-20-2024 05:00 PM,https://www.redfin.com/CA/Los-Angeles/2980-Ripple-Pl-90039/unit-201/home/137602227,TheMLS,24-414775,N,Y,34.1074611,-118.2482438
MLS Listing,,Multi-Family (5+ Unit),3236 W 60th St,Los Angeles,CA,90043,4998000,23,21.0,Park Hills Heights,12040,16760,1962,1,415,,Active,,,https://www.redfin.com/CA/Los-Angeles/3236-W-60th-St-90043/home/6415699,TheMLS,24-416421,N,Y,33.9851226,-118.3290678
MLS Listing,,Condo/Co-op,1249 W 223rd St #204,Torrance,CA,90502,575000,2,2.0,County Strip,935,50165,1987,1,615,385,Active,July-21-2024 01:00 PM,July-21-2024 04:00 PM,https://www.redfin.com/CA/Torrance/1249-W-223rd-St-90502/unit-204/home/7644594,CSMAR,224002928,N,Y,33.824764,-118.2985868
MLS Listing,,Multi-Family (2-4 Unit),832 W 41st St,Los Angeles,CA,90037,1200000,10,4.0,C34 - Los Angeles Southwest,4236,5955,1916,1,283,,Active,,,https://www.redfin.com/CA/Los-Angeles/832-W-41st-St-90037/home/6873122,CRMLS,EV24146556,N,Y,34.0089562,-118.2884281
MLS Listing,,Single Family Residential,8651 Norris Ave,Sun Valley,CA,91352,950000,4,2.0,SUNV - Sun Valley,1988,6273,1926,1,478,,Active,July-21-2024 01:00 PM,July-21-2024 04:00 PM,https://www.redfin.com/CA/Sun-Valley/8651-Norris-Ave-91352/home/5278224,CRMLS,BB24146769,N,Y,34.2263798,-118.3693454
MLS Listing,,Single Family Residential,9410 S 2nd Ave,Inglewood,CA,90305,1200000,4,3.0,699 - Not Defined,2658,8517,1950,1,451,,Active,,,https://www.redfin.com/CA/Inglewood/9410-S-2nd-Ave-90305/home/6466784,CRMLS,IG24146666,N,Y,33.9509881,-118.3185272
MLS Listing,,Vacant Land,5200 Bohlig Rd,Los Angeles,CA,90032,198000,,,679 - Montecito Heights,,5667,,1,,,Active,,,https://www.redfin.com/CA/Los-Angeles/5200-Bohlig-Rd-90032/home/19004310,CRMLS,IV24146736,N,Y,34.071373,-118.170317
MLS Listing,,Multi-Family (5+ Unit),2056-2118 W Century Blvd,Los Angeles,CA,90047,23000000,,68.0,699 - Not Defined,61356,130680,1948,1,375,,Active,,,https://www.redfin.com/CA/Los-Angeles/2056-W-Century-Blvd-90047/home/7308323,CRMLS,OC24146738,N,Y,33.9450183,-118.315443
MLS Listing,,Condo/Co-op,1345 N Hayworth Ave #206,West Hollywood,CA,90046,795000,2,1.0,West Hollywood Vicinity,907,45409,1929,1,877,495,Active,July-21-2024 01:00 PM,July-21-2024 04:00 PM,https://www.redfin.com/CA/West-Hollywood/1345-N-Hayworth-Ave-90046/unit-206/home/7117202,TheMLS,24-413485,N,Y,34.0956929,-118.3634511
MLS Listing,,Condo/Co-op,860 Haverford Ave #203,Pacific Palisades,CA,90272,1949000,2,2.0,Pacific Palisades,1853,18943,2002,1,1052,795,Active,,,https://www.redfin.com/CA/Pacific-Palisades/860-Haverford-Ave-90272/unit-203/home/8123604,TheMLS,24-399431,N,Y,34.046626,-118.528187
MLS Listing,,Multi-Family (2-4 Unit),1647 E 92nd St,Los Angeles,CA,90002,850000,2,3.0,Metropolitan South,1872,6511,1910,1,454,,Active,,,https://www.redfin.com/CA/Los-Angeles/1647-E-92nd-St-90002/home/7299134,TheMLS,24-416479,N,Y,33.9535043,-118.2443534
MLS Listing,,Single Family Residential,1418 W 65th Pl,Los Angeles,CA,90047,685000,4,2.0,C34 - Los Angeles Southwest,1387,3967,1924,1,494,,Active,,,https://www.redfin.com/CA/Los-Angeles/1418-W-65th-Pl-90047/home/7279288,CRMLS,DW24146194,N,Y,33.9796304,-118.3009649
MLS Listing,,Condo/Co-op,"1722 Malcolm # 206, Los Angeles 90024",Westwood - Century City,CA,90024,655000,1,1.5,699 - Not Defined,825,,1985,1,794,524,Active,July-20-2024 01:00 PM,July-20-2024 04:00 PM,https://www.redfin.com/CA/Los-Angeles/1722-Malcolm-Ave-90024/unit-206/home/6803906,CRMLS,OC24146731,N,Y,34.0516685,-118.4357039
MLS Listing,,Single Family Residential,4930 Bluebell Ave,Valley Village,CA,91607,1650000,4,3.0,Valley Village,2667,8114,1962,1,619,,Active,July-21-2024 02:00 PM,July-21-2024 04:00 PM,https://www.redfin.com/CA/Valley-Village/4930-Bluebell-Ave-91607/home/5215945,TheMLS,24-412321,N,Y,34.1600415,-118.4101261
MLS Listing,,Single Family Residential,4414 Mary Ellen Ave,Sherman Oaks,CA,91423,1599000,3,2.0,Sherman Oaks,2012,10131,1940,1,795,,Pre On-Market,,,https://www.redfin.com/CA/Sherman-Oaks/4414-Mary-Ellen-Ave-91423/home/5220916,TheMLS,24-416405,N,Y,34.150979,-118.4189895
MLS Listing,,Townhouse,11434 Wistful Vista Way,Porter Ranch,CA,91326,955000,3,2.5,PORA - Porter Ranch,1714,208148,2002,1,557,520,Active,,,https://www.redfin.com/CA/Porter-Ranch/11434-Wistful-Vista-Way-91326/home/8124958,CRMLS,BB24142035,N,Y,34.2793976,-118.5699811
MLS Listing,,Single Family Residential,19107 Wells Dr,Tarzana,CA,91356,2950000,4,4.5,Tarzana,4026,17809,1962,1,733,,Active,,,https://www.redfin.com/CA/Tarzana/19107-Wells-Dr-91356/home/4149695,TheMLS,24-416423,N,Y,34.1641013,-118.5490158
MLS Listing,,Condo/Co-op,13144 Bromont Ave #41,Sylmar,CA,91342,390000,2,2.0,SYL - Sylmar,864,58583,1987,1,451,360,Active,July-20-2024 01:00 PM,July-20-2024 04:00 PM,https://www.redfin.com/CA/Sylmar/13144-Bromont-Ave-91342/unit-41/home/5422402,CRMLS,SR24146092,N,Y,34.3098666,-118.4363306
MLS Listing,,Single Family Residential,17424 Saticoy St,Lake Balboa,CA,91406,799999,3,1.0,LKBL - Lake Balboa,1108,6008,1950,1,722,,Active,July-20-2024 12:00 PM,July-20-2024 03:00 PM,https://www.redfin.com/CA/Van-Nuys/17424-Saticoy-St-91406/home/4326743,CRMLS,SR24140569,N,Y,34.2081221,-118.5128975
MLS Listing,,Single Family Residential,9854 Portola Dr,Beverly Hills,CA,90210,1645000,3,2.0,C02 - Beverly Hills Post Office,1622,7551,1922,1,1014,,Active,July-21-2024 12:00 PM,July-21-2024 02:00 PM,https://www.redfin.com/CA/Beverly-Hills/9854-Portola-Dr-90210/home/6833163,CRMLS,SR24146506,N,Y,34.1100493,-118.4339226
MLS Listing,,Condo/Co-op,6020 Seabluff Dr #205,Playa Vista,CA,90094,899000,2,2.0,Playa Vista,910,92059,2006,1,988,793,Active,July-21-2024 12:00 PM,July-21-2024 04:00 PM,https://www.redfin.com/CA/Playa-Vista/6020-Seabluff-Dr-90094/unit-205/home/12290553,TheMLS,24-416411,N,Y,33.9734736,-118.4222843
MLS Listing,,Single Family Residential,7444 Ostrom Ave,Van Nuys,CA,91406,779000,3,1.0,VN - Van Nuys,1100,6251,1950,1,708,,Active,,,https://www.redfin.com/CA/Van-Nuys/7444-Ostrom-Ave-91406/home/4331310,CRMLS,PW24143498,N,Y,34.2061843,-118.5074272
MLS Listing,,Condo/Co-op,1645 Vine St #1008,Los Angeles,CA,90028,1525000,1,2.0,Hollywood,2149,22500,1928,1,710,2462,Active,,,https://www.redfin.com/CA/Los-Angeles/1645-Vine-St-90028/unit-1008/home/17225880,TheMLS,24-416381,N,Y,34.1011597,-118.3269947
MLS Listing,,Single Family Residential,14417 Chatsworth Dr,San Fernando,CA,91340,829000,3,2.0,SF - San Fernando,1529,6832,2000,1,542,,Active,July-21-2024 01:00 PM,July-21-2024 04:00 PM,https://www.redfin.com/CA/San-Fernando/14417-Chatsworth-Dr-91340/home/5588954,CRMLS,SR24138651,N,Y,34.27493,-118.4476557
MLS Listing,,Single Family Residential,3911 Cody Rd,Sherman Oaks,CA,91403,6950000,5,6.0,Sherman Oaks,8056,33901,1951,1,863,,Active,,,https://www.redfin.com/CA/Sherman-Oaks/3911-Cody-Rd-91403/home/4887757,TheMLS,24-415567,N,Y,34.141312,-118.464871
MLS Listing,,Single Family Residential,205 S Avenue 59,Los Angeles,CA,90042,1190000,3,3.5,632 - Highland Park,2000,3406,2023,1,595,,Active,,,https://www.redfin.com/CA/Los-Angeles/205-South-Avenue-59-90042/home/7087912,CRMLS,TR24146636,N,Y,34.1086019,-118.189616
MLS Listing,,Single Family Residential,8901 S St Andrews Pl,Los Angeles,CA,90047,799900,3,2.0,C34 - Los Angeles Southwest,1045,5401,1924,1,765,,Pre On-Market,,,https://www.redfin.com/CA/Los-Angeles/8901-S-St-Andrews-Pl-90047/home/7294148,CRMLS,IV24146637,N,Y,33.9562048,-118.3114661
MLS Listing,,Multi-Family (2-4 Unit),1539 Tremont St,Los Angeles,CA,90033,650000,10,4.0,BOYH - Boyle Heights,1903,7499,1927,1,342,,Active,,,https://www.redfin.com/CA/Los-Angeles/1539-Tremont-St-90033/home/6945390,CRMLS,PW24145790,N,Y,34.0606626,-118.196641
MLS Listing,,Single Family Residential,2043 Lemoyne St,Los Angeles,CA,90026,2599000,3,3.5,Silver Lake - Echo Park,3026,8241,1951,1,859,,Active,July-20-2024 01:00 PM,July-20-2024 04:00 PM,https://www.redfin.com/CA/Los-Angeles/2043-Lemoyne-St-90026/home/7056198,TheMLS,24-413293,N,Y,34.0900784,-118.2531574
MLS Listing,,Single Family Residential,13117 Otsego St,Sherman Oaks,CA,91423,4199000,6,7.0,SO - Sherman Oaks,4354,7427,2023,1,964,,Active,July-19-2024 11:00 AM,July-19-2024 02:00 PM,https://www.redfin.com/CA/Sherman-Oaks/13117-Otsego-St-91423/home/5216380,CRMLS,SR24136297,N,Y,34.163306,-118.4187909
MLS Listing,,Single Family Residential,7701 Kentwood Ave,Los Angeles,CA,90045,2375000,4,2.5,Westchester,2458,7663,1951,1,966,3,Pre On-Market,,,https://www.redfin.com/CA/Los-Angeles/7701-Kentwood-Ave-90045/home/6613318,TheMLS,24-415923,N,Y,33.9730412,-118.4012303
MLS Listing,,Single Family Residential,1725 Mount Olympus Dr,Los Angeles,CA,90046,2395000,3,3.0,Sunset Strip - Hollywood Hills West,2897,5021,1928,1,827,,Active,July-21-2024 02:00 PM,July-21-2024 05:00 PM,https://www.redfin.com/CA/Los-Angeles/1725-Mount-Olympus-Dr-90046/home/7125631,TheMLS,24-415859,N,Y,34.1041579,-118.3655506
MLS Listing,,Single Family Residential,11448 Debra Ave,Granada Hills,CA,91344,975000,3,2.0,GH - Granada Hills,1470,7809,1956,1,663,,Active,,,https://www.redfin.com/CA/Granada-Hills/11448-Debra-Ave-91344/home/5731184,CRMLS,SR24145560,N,Y,34.2786679,-118.4898086
