SALE TYPE,SOLD DATE,PROPERTY TYPE,ADDRESS,CITY,STATE OR PROVINCE,ZIP OR POSTAL CODE,PRICE,BEDS,BATHS,LOCATION,SQUARE FEET,LOT SIZE,YEAR BUILT,DAYS ON MARKET,$/SQUARE FEET,HOA/MONTH,STATUS,NEXT OPEN HOUSE START TIME,NEXT OPEN HOUSE END TIME,URL (SEE https://www.redfin.com/buy-a-home/comparative-market-analysis FOR INFO ON PRICING),SOURCE,MLS#,FAVORITE,INTERESTED,LATITUDE,LONGITUDE
"In accordance with local MLS rules, some MLS listings are not included in the download"
MLS Listing,,Condo/Co-op,730 24th St NW #220,Washington,DC,20037,258900,0,1.0,Foggy Bottom,520,,1961,1,498,827,Active,,,https://www.redfin.com/DC/Washington/730-24th-St-NW-20037/unit-220/home/143731757,BRIGHT MLS,DCDC2150450,N,Y,38.8989336,-77.0517241
MLS Listing,,Condo/Co-op,3101 Sherman Ave NW #301,Washington,DC,20010,414900,1,1.0,Columbia Heights,612,,2017,1,678,420,Active,July-21-2024 01:00 PM,July-21-2024 03:00 PM,https://www.redfin.com/DC/Washington/3101-Sherman-Ave-NW-20010/unit-301/home/115547612,BRIGHT MLS,DCDC2150212,N,Y,38.9290209,-77.0259956
MLS Listing,,Single Family Residential,3613 Brothers Pl SE,Washington,DC,20032,1500000,3,2.0,Congress Heights,1482,10541,1908,3,1012,,Active,,,https://www.redfin.com/DC/Washington/3613-Brothers-Pl-SE-20032/home/10167194,BRIGHT MLS,DCDC2150472,N,Y,38.8396258,-77.0065382
MLS Listing,,Townhouse,1622 6th St NW,Washington,DC,20001,1150000,4,3.5,Old City 2,2768,1785,1900,6,415,,Active,July-21-2024 01:00 PM,July-21-2024 03:00 PM,https://www.redfin.com/DC/Washington/1622-6th-St-NW-20001/home/9879262,BRIGHT MLS,DCDC2150188,N,Y,38.9118074,-77.0201812
MLS Listing,,Single Family Residential,1802 24th Pl SE,Washington,DC,20020,569000,4,3.0,Randle Heights,2124,2422,1927,6,268,,Active,July-21-2024 01:00 PM,July-21-2024 03:00 PM,https://www.redfin.com/DC/Washington/1802-24th-Pl-SE-20020/home/10150936,BRIGHT MLS,DCDC2150024,N,Y,38.8680048,-76.9719392
MLS Listing,,Townhouse,1701 D St NE,Washington,DC,20002,700000,3,2.0,Old City 1,1822,1440,1931,7,384,,Active,,,https://www.redfin.com/DC/Washington/1701-D-St-NE-20002/home/10115280,BRIGHT MLS,DCDC2149142,N,Y,38.8946068,-76.9805779
MLS Listing,,Condo/Co-op,2024 16th St NW Unit B,Washington,DC,20009,414000,1,1.0,Old City 2,596,,1920,7,695,180,Active,,,https://www.redfin.com/DC/Washington/2024-16th-St-NW-20009/unit-B/home/143815261,BRIGHT MLS,DCDC2149696,N,Y,38.9176989,-77.0368768
MLS Listing,,Multi-Family (2-4 Unit),208 T St NE,Washington,DC,20002,1600000,,,Eckington,2992,2551,1938,7,535,,Active,,,https://www.redfin.com/DC/Washington/208-T-St-NE-20002/home/10075191,BRIGHT MLS,DCDC2149314,N,Y,38.9157877,-77.0030917
MLS Listing,,Condo/Co-op,1211 Van St SE #315,Washington,DC,20003,495000,1,1.0,Old City 1,670,,2020,7,739,474,Active,,,https://www.redfin.com/DC/Washington/1211-Van-St-SE-20003/unit-315/home/175691751,BRIGHT MLS,DCDC2148648,N,Y,38.87628,-77.0085016
MLS Listing,,Townhouse,4305 3rd St NW,Washington,DC,20011,974900,4,3.5,Petworth,2058,1670,1923,7,474,,Active,,,https://www.redfin.com/DC/Washington/4305-3rd-St-NW-20011/home/10065236,BRIGHT MLS,DCDC2149376,N,Y,38.9434737,-77.0152309
MLS Listing,,Condo/Co-op,1620 Corcoran St NW Unit A1,Washington,DC,20009,499999,2,2.0,Old City 2,753,,1875,7,664,366,Active,,,https://www.redfin.com/DC/Washington/1620-Corcoran-St-NW-20009/unit-A1/home/11744722,BRIGHT MLS,DCDC2148654,N,Y,38.9116883,-77.0376573
MLS Listing,,Single Family Residential,5706 Nevada Ave NW,Washington,DC,20015,3095000,6,4.5,Chevy Chase,6258,5160,1930,8,495,,Active,,,https://www.redfin.com/DC/Washington/5706-Nevada-Ave-NW-20015/home/9978802,BRIGHT MLS,DCDC2146246,N,Y,38.9660575,-77.0709496
MLS Listing,,Condo/Co-op,315 G St NE #306,Washington,DC,20002,374900,1,1.0,Old City 1,410,,1927,8,914,420,Active,,,https://www.redfin.com/DC/Washington/315-G-St-NE-20002/unit-306/home/40511266,BRIGHT MLS,DCDC2148930,N,Y,38.8986683,-77.0013973
MLS Listing,,Condo/Co-op,4600 Connecticut Ave NW #526,Washington,DC,20008,325000,1,1.0,Wakefield,556,,1948,8,585,650,Active,July-21-2024 01:00 PM,July-21-2024 03:00 PM,https://www.redfin.com/DC/Washington/4600-Connecticut-Ave-NW-20008/unit-526/home/9976457,BRIGHT MLS,DCDC2147844,N,Y,38.9502949,-77.0675324
MLS Listing,,Townhouse,215 R St NE Unit A,Washington,DC,20002,770000,3,2.0,Eckington,1411,,2004,8,546,454,Active,,,https://www.redfin.com/DC/Washington/215-R-St-NE-20002/unit-A/home/10345815,BRIGHT MLS,DCDC2144320,N,Y,38.9124063,-77.0029838
MLS Listing,,Townhouse,659 Girard St NE,Washington,DC,20017,935000,4,4.0,Brookland,2194,2216,1927,8,426,,Pre On-Market,July-28-2024 01:00 PM,July-28-2024 03:00 PM,https://www.redfin.com/DC/Washington/659-Girard-St-NE-20017/home/10076347,BRIGHT MLS,DCDC2147922,N,Y,38.9263065,-76.996331
MLS Listing,,Single Family Residential,1017 48th St NE,Washington,DC,20019,580000,4,3.5,Deanwood,2100,2906,2012,8,276,,Active,,,https://www.redfin.com/DC/Washington/1017-48th-St-NE-20019/home/10124805,BRIGHT MLS,DCDC2147924,N,Y,38.9035652,-76.933497
MLS Listing,,Townhouse,243 Longfellow St NW,Washington,DC,20011,740000,4,3.5,Chillum,1979,1701,1928,8,374,,Active,,,https://www.redfin.com/DC/Washington/243-Longfellow-St-NW-20011/home/10066484,BRIGHT MLS,DCDC2147286,N,Y,38.9578537,-77.01571999
MLS Listing,,Condo/Co-op,1709 Euclid St NW #1,Washington,DC,20009,525000,2,2.0,Mount Pleasant,1044,,1900,9,503,200,Active,,,https://www.redfin.com/DC/Washington/1709-Euclid-St-NW-20009/unit-1/home/39956087,BRIGHT MLS,DCDC2147656,N,Y,38.9233315,-77.0394227
MLS Listing,,Townhouse,219 14th Pl NE,Washington,DC,20002,719000,2,1.5,Old City 1,940,1088,1915,9,765,,Active,,,https://www.redfin.com/DC/Washington/219-14th-Pl-NE-20002/home/9916528,BRIGHT MLS,DCDC2145880,N,Y,38.8926848,-76.9843256
MLS Listing,,Townhouse,525 24th St NE,Washington,DC,20002,674900,3,2.0,Old City 1,1684,1600,1928,9,401,,Active,,,https://www.redfin.com/DC/Washington/525-24th-St-NE-20002/home/10112794,BRIGHT MLS,DCDC2149064,N,Y,38.8967339,-76.9723066
MLS Listing,,Townhouse,4006 14th St NW,Washington,DC,20011,895000,4,3.5,Columbia Heights,1950,1753,1911,9,459,,Active,,,https://www.redfin.com/DC/Washington/4006-14th-St-NW-20011/home/10015660,BRIGHT MLS,DCDC2148722,N,Y,38.9400426,-77.0329756
MLS Listing,,Townhouse,5623 Eads St NE,Washington,DC,20019,269900,2,1.0,Deanwood,1102,1728,1944,10,245,,Active,,,https://www.redfin.com/DC/Washington/5623-Eads-St-NE-20019/home/10129612,BRIGHT MLS,DCDC2143076,N,Y,38.8956459,-76.9196727
MLS Listing,,Townhouse,5500 Eads St NE,Washington,DC,20019,650000,4,3.5,Deanwood,2244,2584,2022,10,290,,Active,,,https://www.redfin.com/DC/Washington/5500-Eads-St-NE-20019/home/166662937,BRIGHT MLS,DCDC2148042,N,Y,38.8960308,-76.9217441
MLS Listing,,Condo/Co-op,501 Slaters Ln #704,Alexandria,VA,22314,349900,1,1.0,MARINA TOWERS,840,,1970,13,417,689,Active,,,https://www.redfin.com/VA/Alexandria/501-Slaters-Ln-22314/unit-704/home/11864848,BRIGHT MLS,VAAX2035770,N,Y,38.822431,-77.0414759
MLS Listing,,Townhouse,5820 3rd Pl NW,Washington,DC,20011,699900,3,3.0,Brightwood,2397,2751,1936,15,292,,Active,,,https://www.redfin.com/DC/Washington/5820-3rd-Pl-NW-20011/home/10062868,BRIGHT MLS,DCDC2148908,N,Y,38.9608287,-77.0173328
MLS Listing,,Condo/Co-op,1211 13th St NW #407,Washington,DC,20005,650000,2,2.0,Old City 2,823,,2005,17,790,659,Active,,,https://www.redfin.com/DC/Washington/1211-13th-St-NW-20005/unit-407/home/11744769,BRIGHT MLS,DCDC2146818,N,Y,38.9062866,-77.0293244
MLS Listing,,Vacant Land,5512 Clay Pl NE,Washington,DC,20019,154900,,,Deanwood,,4000,,17,,,Active,,,https://www.redfin.com/DC/Washington/5512-Clay-Pl-NE-20019/home/174970568,BRIGHT MLS,DCDC2148462,N,Y,38.894343,-76.921171
MLS Listing,,Townhouse,811 Upshur St NW #8,Washington,DC,20011,550000,2,2.0,Petworth,950,,2019,17,579,185,Active,,,https://www.redfin.com/DC/Washington/811-Upshur-St-NW-20011/unit-8/home/160800639,BRIGHT MLS,DCDC2147856,N,Y,38.9422468,-77.0239488
MLS Listing,,Condo/Co-op,811 4th St NW #1106,Washington,DC,20001,474900,1,1.0,Old City 2,692,,2007,17,686,581,Active,,,https://www.redfin.com/DC/Washington/811-4th-St-NW-20001/unit-1106/home/12531989,BRIGHT MLS,DCDC2148342,N,Y,38.9010047,-77.0159186
MLS Listing,,Single Family Residential,4224 16th St NW,Washington,DC,20011,1950000,8,5.5,Crestwood,6671,7423,1921,21,292,,Active,,,https://www.redfin.com/DC/Washington/4224-16th-St-NW-20011/home/55187929,BRIGHT MLS,DCDC2146852,N,Y,38.942818,-77.0368589
MLS Listing,,Townhouse,19 Atlantic St SE,Washington,DC,20032,474900,4,2.0,Congress Heights,1824,3420,1951,21,260,,Active,,,https://www.redfin.com/DC/Washington/19-Atlantic-St-SE-20032/home/10169348,BRIGHT MLS,DCDC2147330,N,Y,38.8311303,-77.0067182
MLS Listing,,Condo/Co-op,1628 C St SE #201,Washington,DC,20003,475000,2,2.0,Old City 1,743,,1953,22,639,483,Active,,,https://www.redfin.com/DC/Washington/1628-C-St-SE-20003/unit-201/home/12168005,BRIGHT MLS,DCDC2146862,N,Y,38.8855231,-76.9813538
MLS Listing,,Condo/Co-op,2109 10th St NW Ph 2,Washington,DC,20001,974900,2,2.0,Old City 2,1448,,2005,22,673,410,Active,,,https://www.redfin.com/DC/Washington/2109-10th-St-NW-20001/unit-2/home/11744823,BRIGHT MLS,DCDC2147338,N,Y,38.9185428,-77.0257482
MLS Listing,,Multi-Family (2-4 Unit),800 F St NE,Washington,DC,20002,1495000,,,Old City 1,3029,1140,1900,22,494,,Active,,,https://www.redfin.com/DC/Washington/800-F-St-NE-20002/home/9902549,BRIGHT MLS,DCDC2146848,N,Y,38.8974974,-76.9946935
MLS Listing,,Condo/Co-op,1661 Crescent Pl NW #101,Washington,DC,20009,449999,1,1.0,Mount Pleasant,790,,1927,23,570,1335,Active,,,https://www.redfin.com/DC/Washington/1661-Crescent-Pl-NW-20009/unit-101/home/12384415,BRIGHT MLS,DCDC2147850,N,Y,38.9208506,-77.0382313
MLS Listing,,Condo/Co-op,1025 1st St SE #915,Washington,DC,20003,750000,2,2.0,Old City 1,1065,,2009,27,704,698,Active,,,https://www.redfin.com/DC/Washington/1025-1st-St-SE-20003/unit-915/home/39539481,BRIGHT MLS,DCDC2146058,N,Y,38.8776645,-77.0061079
MLS Listing,,Townhouse,1651 New Jersey Ave NW,Washington,DC,20001,1195000,3,2.5,Old City 2,1515,1118,1900,28,789,,Active,,,https://www.redfin.com/DC/Washington/1651-New-Jersey-Ave-NW-20001/home/9883909,BRIGHT MLS,DCDC2143622,N,Y,38.9123622,-77.0169539
MLS Listing,,Single Family Residential,4344 Blagden Ave NW,Washington,DC,20011,1299000,3,3.0,Crestwood,2911,6720,1958,28,446,,Active,,,https://www.redfin.com/DC/Washington/4344-Blagden-Ave-NW-20011/home/10013094,BRIGHT MLS,DCDC2145728,N,Y,38.9450132,-77.0434561
MLS Listing,,Condo/Co-op,2122 California St NW #662,Washington,DC,20008,975000,3,2.0,Kalorama,1500,,1905,29,650,1776,Active,,,https://www.redfin.com/DC/Washington/2122-California-St-NW-20008/unit-662/home/22012269,BRIGHT MLS,DCDC2146360,N,Y,38.9162653,-77.0474068
MLS Listing,,Condo/Co-op,2801 Cortland Pl NW #2,Washington,DC,20008,319000,1,1.0,Garfield,608,,1936,30,525,476,Active,,,https://www.redfin.com/DC/Washington/2801-Cortland-Pl-NW-20008/unit-2/home/9986281,BRIGHT MLS,DCDC2146060,N,Y,38.9306237,-77.0576363
MLS Listing,,Condo/Co-op,1330 New Hampshire Ave NW #606,Washington,DC,20036,349900,0,1.0,Central,498,,1963,31,703,514,Active,,,https://www.redfin.com/DC/Washington/1330-New-Hampshire-Ave-NW-20036/unit-606/home/9057065,BRIGHT MLS,DCDC2145452,N,Y,38.9083086,-77.0451575
MLS Listing,,Townhouse,5063 Sheriff Rd NE,Washington,DC,20019,339000,2,2.0,Deanwood,870,693,1941,32,390,,Active,,,https://www.redfin.com/DC/Washington/5063-Sheriff-Rd-NE-20019/home/10126856,BRIGHT MLS,DCDC2145626,N,Y,38.9033624,-76.9287225
MLS Listing,,Condo/Co-op,1025 1st St SE #505,Washington,DC,20003,750000,2,2.0,Old City 1,1188,,2009,34,631,779,Active,,,https://www.redfin.com/DC/Washington/1025-1st-St-SE-20003/unit-505/home/39900357,BRIGHT MLS,DCDC2145674,N,Y,38.8776645,-77.0061079
MLS Listing,,Townhouse,1336 Kearny St NE,Washington,DC,20017,1199900,4,3.5,Brookland,1691,3563,1907,34,710,,Active,,,https://www.redfin.com/DC/Washington/1336-Kearny-St-NE-20017/home/10091847,BRIGHT MLS,DCDC2145490,N,Y,38.9309161,-76.9871452
MLS Listing,,Condo/Co-op,911 2nd St NE #503,Washington,DC,20002,799900,2,2.0,Old City 1,1163,,2017,34,688,632,Active,,,https://www.redfin.com/DC/Washington/911-2nd-St-NE-20002/unit-503/home/114432553,BRIGHT MLS,DCDC2145810,N,Y,38.9017433,-77.0030735
MLS Listing,,Condo/Co-op,1315 Harvard St NW #1,Washington,DC,20009,789900,3,2.5,Columbia Heights,1500,,1909,39,527,359,Pre On-Market,,,https://www.redfin.com/DC/Washington/1315-Harvard-St-NW-20009/unit-1/home/190709880,BRIGHT MLS,DCDC2142032,N,Y,38.9270139,-77.0303478
MLS Listing,,Condo/Co-op,1315 Harvard St NW #2,Washington,DC,20009,849900,3,2.5,Columbia Heights,1500,,1909,39,567,359,Pre On-Market,,,https://www.redfin.com/DC/Washington/1315-Harvard-St-NW-20009/unit-2/home/190860894,BRIGHT MLS,DCDC2140556,N,Y,38.9270139,-77.0303478
MLS Listing,,Condo/Co-op,800 4th St SW Unit N812,Washington,DC,20024,314900,1,1.0,R. L. A. SW,617,,1959,42,510,658,Active,,,https://www.redfin.com/DC/Washington/800-4th-St-SW-20024/unit-N812/home/12532155,BRIGHT MLS,DCDC2144848,N,Y,38.880266,-77.0170883
MLS Listing,,Condo/Co-op,709 Rock Creek Church Rd NW #2,Washington,DC,20010,939999,2,2.5,Columbia Heights,1575,,1912,43,597,280,Active,,,https://www.redfin.com/DC/Washington/709-Rock-Creek-Church-Rd-NW-20010/unit-2/home/101847401,BRIGHT MLS,DCDC2142320,N,Y,38.9370346,-77.0219168
MLS Listing,,Townhouse,615 Farragut Pl NE,Washington,DC,20017,555000,3,1.0,Brookland,1196,1654,1949,43,464,,Active,,,https://www.redfin.com/DC/Washington/615-Farragut-Pl-NE-20017/home/10083501,BRIGHT MLS,DCDC2144960,N,Y,38.951123,-76.9974045
MLS Listing,,Townhouse,646 Acker Pl NE,Washington,DC,20002,910000,2,1.5,Old City 1,1436,1024,1910,48,634,,Active,,,https://www.redfin.com/DC/Washington/646-Acker-Pl-NE-20002/home/9898847,BRIGHT MLS,DCDC2141236,N,Y,38.8968198,-76.9971346
MLS Listing,,Townhouse,26 N St SW #26,Washington,DC,20024,624400,2,1.5,Old City 1,1075,,2002,48,581,301,Active,,,https://www.redfin.com/DC/Washington/26-N-St-SW-20024/unit-26/home/10186384,BRIGHT MLS,DCDC2141800,N,Y,38.8744638,-77.0103962
MLS Listing,,Multi-Family (2-4 Unit),2719 Fort Baker Dr SE,Washington,DC,20020,689000,,,Hillcrest,2804,3000,1955,49,246,,Active,,,https://www.redfin.com/DC/Washington/2719-Fort-Baker-Dr-SE-20020/home/10151260,BRIGHT MLS,DCDC2142898,N,Y,38.8655323,-76.9689755
MLS Listing,,Condo/Co-op,4840 Macarthur Blvd NW #206,Washington,DC,20007,239000,1,1.0,Palisades,483,,1959,49,495,313,Active,,,https://www.redfin.com/DC/Washington/4840-MacArthur-Blvd-NW-20007/unit-206/home/12531141,BRIGHT MLS,DCDC2142650,N,Y,38.9170703,-77.0968742
MLS Listing,,Condo/Co-op,800 4th St SW Unit N717,Washington,DC,20024,299000,1,1.0,R. L. A. SW,581,,1959,50,515,658,Active,July-21-2024 01:00 PM,July-21-2024 03:00 PM,https://www.redfin.com/DC/Washington/800-4th-St-SW-20024/unit-N717/home/12531792,BRIGHT MLS,DCDC2142682,N,Y,38.880266,-77.0170883
MLS Listing,,Condo/Co-op,1439 Euclid St NW #105,Washington,DC,20009,209000,0,1.0,Columbia Heights,306,,1939,51,683,305,Active,,,https://www.redfin.com/DC/Washington/1439-Euclid-St-NW-20009/unit-105/home/10345127,BRIGHT MLS,DCDC2142918,N,Y,38.9237935,-77.0335032
MLS Listing,,Townhouse,4631 12th St NE,Washington,DC,20017,649900,4,2.0,Brookland,1632,2584,1941,63,398,,Active,,,https://www.redfin.com/DC/Washington/4631-12th-St-NE-20017/home/10089905,BRIGHT MLS,DCDC2135464,N,Y,38.9461247,-76.9900701
MLS Listing,,Condo/Co-op,1117 10th St NW #1104,Washington,DC,20001,299900,0,1.0,Old City 2,545,,2006,64,550,367,Active,,,https://www.redfin.com/DC/Washington/1117-10th-St-NW-20001/unit-1104/home/11746711,BRIGHT MLS,DCDC2140482,N,Y,38.9046801,-77.0258028
MLS Listing,,Condo/Co-op,1451 Park Rd NW #311,Washington,DC,20010,299000,1,1.0,Columbia Heights,456,,1930,70,656,304,Active,,,https://www.redfin.com/DC/Washington/1451-Park-Rd-NW-20010/unit-311/home/55188120,BRIGHT MLS,DCDC2140434,N,Y,38.9311178,-77.0343213
MLS Listing,,Townhouse,5513 B St SE,Washington,DC,20019,459000,3,4.0,Marshall Heights,1190,2490,1947,76,386,,Active,,,https://www.redfin.com/DC/Washington/5513-B-St-SE-20019/home/10133441,BRIGHT MLS,DCDC2135566,N,Y,38.8853231,-76.9213164
MLS Listing,,Condo/Co-op,1166 Abbey Pl NE #1,Washington,DC,20002,800000,2,2.5,Old City 1,1150,,1900,79,696,182,Active,,,https://www.redfin.com/DC/Washington/1166-Abbey-Pl-NE-20002/unit-1/home/82087166,BRIGHT MLS,DCDC2137966,N,Y,38.9053582,-77.0014921
MLS Listing,,Condo/Co-op,900 11th St NE #1,Washington,DC,20002,899000,3,3.0,Old City 1,1750,,1906,79,514,250,Active,,,https://www.redfin.com/DC/Washington/900-11th-St-NE-20002/unit-1/home/102282003,BRIGHT MLS,DCDC2139578,N,Y,38.9014494,-76.9917329
MLS Listing,,Condo/Co-op,4308 Georgia Ave NW #102,Washington,DC,20011,315000,1,1.0,16th Street Heights,559,,2017,83,564,362,Active,,,https://www.redfin.com/DC/Washington/4308-Georgia-Ave-NW-20011/unit-102/home/113618934,BRIGHT MLS,DCDC2138944,N,Y,38.9433171,-77.0261939
MLS Listing,,Single Family Residential,3429 Highwood Dr SE,Washington,DC,20020,679900,3,2.0,Hillcrest,1996,,1940,85,341,,Active,,,https://www.redfin.com/DC/Washington/3429-Highwood-Dr-SE-20020/home/10145514,BRIGHT MLS,DCDC2137294,N,Y,38.8694188,-76.9560469
MLS Listing,,Condo/Co-op,525 Water St SW #208,Washington,DC,20024,699000,2,2.0,R. L. A. SW,835,,2016,90,837,888,Active,July-21-2024 01:00 PM,July-21-2024 03:00 PM,https://www.redfin.com/DC/Washington/525-Water-St-SW-20024/unit-208/home/113173126,BRIGHT MLS,DCDC2131294,N,Y,38.8758716,-77.0205659
MLS Listing,,Condo/Co-op,1311 13th St NW #407,Washington,DC,20005,549900,1,1.0,Old City 2,630,,2016,92,873,455,Active,,,https://www.redfin.com/DC/Washington/1311-13th-St-NW-20005/unit-407/home/113723758,BRIGHT MLS,DCDC2136124,N,Y,38.9077701,-77.029428
MLS Listing,,Condo/Co-op,1133 14th St NW #202,Washington,DC,20005,449900,1,1.0,Central,716,,2006,92,628,603,Active,,,https://www.redfin.com/DC/Washington/1133-14th-St-NW-20005/unit-202/home/11746272,BRIGHT MLS,DCDC2137050,N,Y,38.9047849,-77.0317253
MLS Listing,,Condo/Co-op,1501 1st St NW #1,Washington,DC,20001,650000,2,2.0,Old City 2,1109,,1900,92,586,226,Active,,,https://www.redfin.com/DC/Washington/1501-1st-St-NW-20001/unit-1/home/167599841,BRIGHT MLS,DCDC2136814,N,Y,38.9098816,-77.0119933
MLS Listing,,Townhouse,2626 10th St NE,Washington,DC,20018,540000,3,1.5,Brookland,1310,1728,1926,97,412,,Active,,,https://www.redfin.com/DC/Washington/2626-10th-St-NE-20018/home/10086936,BRIGHT MLS,DCDC2135308,N,Y,38.9238889,-76.9926687
MLS Listing,,Condo/Co-op,1025 1st St SE #611,Washington,DC,20003,679000,2,2.0,Old City 1,1065,,2009,99,638,607,Active,,,https://www.redfin.com/DC/Washington/1025-1st-St-SE-20003/unit-611/home/39956004,BRIGHT MLS,DCDC2135428,N,Y,38.8776645,-77.0061079
MLS Listing,,Townhouse,4230 Southern Ave SE,Washington,DC,20019,420700,3,2.0,Fort Dupont Park,1600,1600,1952,100,263,,Active,,,https://www.redfin.com/DC/Washington/4230-Southern-Ave-SE-20019/home/10137658,BRIGHT MLS,DCDC2134620,N,Y,38.8678917,-76.9417665
MLS Listing,,Condo/Co-op,4101 Cathedral Ave NW #1003,Washington,DC,20016,750000,3,2.0,Observatory Circle,1600,,1962,104,469,2428,Active,,,https://www.redfin.com/DC/Washington/4101-Cathedral-Ave-NW-20016/unit-1003/home/66786530,BRIGHT MLS,DCDC2135294,N,Y,38.9305425,-77.0795154
MLS Listing,,Condo/Co-op,1701 16th St NW #140,Washington,DC,20009,399900,1,1.0,Old City 2,518,,1920,118,772,450,Active,,,https://www.redfin.com/DC/Washington/1701-16th-St-NW-20009/unit-140/home/40049961,BRIGHT MLS,DCDC2133180,N,Y,38.912884,-77.0358918
MLS Listing,,Townhouse,527 Longfellow St NW #1,Washington,DC,20011,649000,3,3.0,Petworth,1685,,1923,120,385,285,Active,,,https://www.redfin.com/DC/Washington/527-Longfellow-St-NW-20011/unit-1/home/143993270,BRIGHT MLS,DCDC2133240,N,Y,38.9576949,-77.0209766
MLS Listing,,Condo/Co-op,1111 Orren St NE #410,Washington,DC,20002,339900,1,1.0,Trinidad,524,,2016,127,649,344,Active,,,https://www.redfin.com/DC/Washington/1111-Orren-St-NE-20002/unit-410/home/109818039,BRIGHT MLS,DCDC2131810,N,Y,38.9014245,-76.9862531
MLS Listing,,Single Family Residential,710 Alabama Ave SE,Washington,DC,20032,599000,4,3.0,Congress Heights,2024,2500,1900,141,296,,Active,,,https://www.redfin.com/DC/Washington/710-Alabama-Ave-SE-20032/home/10164581,BRIGHT MLS,DCDC2126490,N,Y,38.8437896,-76.9953797
MLS Listing,,Condo/Co-op,529 Lamont St NW #304,Washington,DC,20010,449500,3,1.0,Columbia Heights,1082,,1926,173,415,440,Active,,,https://www.redfin.com/DC/Washington/529-Lamont-St-NW-20010/unit-304/home/10184515,BRIGHT MLS,DCDC2117328,N,Y,38.9314622,-77.0213171
MLS Listing,,Condo/Co-op,603 Kennedy St NW #4,Washington,DC,20011,674900,3,3.5,Petworth,1837,,2016,182,367,372,Active,,,https://www.redfin.com/DC/Washington/603-Kennedy-St-NW-20011/unit-4/home/109027822,BRIGHT MLS,DCDC2124702,N,Y,38.9565669,-77.0211766
MLS Listing,,Townhouse,756 Upsal St SE,Washington,DC,20032,439900,4,2.5,Congress Heights,1744,2386,1947,224,252,,Active,,,https://www.redfin.com/DC/Washington/756-Upsal-St-SE-20032/home/10164936,BRIGHT MLS,DCDC2107838,N,Y,38.8398587,-76.9944461
MLS Listing,,Condo/Co-op,2608 Wade Rd SE #203,Washington,DC,20020,165000,2,1.0,Barry Farms,886,,2004,278,186,313,Active,,,https://www.redfin.com/DC/Washington/2608-Wade-Rd-SE-20020/unit-203/home/10191318,BRIGHT MLS,DCDC2109026,N,Y,38.8598044,-76.9962389
MLS Listing,,Single Family Residential,2116 R St NE,Washington,DC,20002,865000,3,3.5,Woodridge,1791,3454,1935,1,483,,Active,July-21-2024 02:00 PM,July-21-2024 04:00 PM,https://www.redfin.com/DC/Washington/2116-R-St-NE-20002/home/10109763,BRIGHT MLS,DCDC2147826,N,Y,38.9127991,-76.9753471
MLS Listing,,Single Family Residential,3806 18th St NE,Washington,DC,20018,879000,3,2.5,Brookland,1917,4800,1940,1,459,,Active,July-18-2024 05:00 PM,July-18-2024 07:00 PM,https://www.redfin.com/DC/Washington/3806-18th-St-NE-20018/home/10100102,BRIGHT MLS,DCDC2150590,N,Y,38.9364193,-76.9801251
MLS Listing,,Multi-Family (2-4 Unit),424 #1-#2 Taylor St NW,Washington,DC,20011,1975000,,,Washington,3847,2603,2024,1,513,,Active,,,https://www.redfin.com/DC/Washington/424-Taylor-St-NW-20011/home/10059683,BRIGHT MLS,DCDC2150960,N,Y,38.9407994,-77.018364
MLS Listing,,Townhouse,54 Randolph Pl NW,Washington,DC,20001,1070000,3,2.5,Eckington,2139,1500,1895,1,500,,Pre On-Market,,,https://www.redfin.com/DC/Washington/54-Randolph-Pl-NW-20001/home/10047039,BRIGHT MLS,DCDC2150942,N,Y,38.9131626,-77.0108461
MLS Listing,,Townhouse,2132 Cathedral Ave NW,Washington,DC,20008,2150000,5,4.5,Garfield,2829,1801,1965,1,760,,Pre On-Market,,,https://www.redfin.com/DC/Washington/2132-Cathedral-Ave-NW-20008/home/9988832,BRIGHT MLS,DCDC2150902,N,Y,38.924559,-77.050122
MLS Listing,,Single Family Residential,1829 E Capitol St SE,Washington,DC,20003,849900,4,3.5,Old City 1,2700,1979,1977,1,315,,Active,,,https://www.redfin.com/DC/Washington/1829-E-Capitol-St-SE-20003/home/9921988,BRIGHT MLS,DCDC2146712,N,Y,38.8894825,-76.97765
MLS Listing,,Condo/Co-op,1001 L St NW #708,Washington,DC,20001,589000,2,1.0,Old City 2,837,,2004,1,704,838,Active,,,https://www.redfin.com/DC/Washington/1001-L-St-NW-20001/unit-708/home/10192844,BRIGHT MLS,DCDC2150882,N,Y,38.9046581,-77.0262655
MLS Listing,,Townhouse,3622 Ingomar Pl NW,Washington,DC,20015,990000,3,3.0,Chevy Chase,1990,2452,1938,1,497,,Pre On-Market,,,https://www.redfin.com/DC/Washington/3622-Ingomar-Pl-NW-20015/home/9977918,BRIGHT MLS,DCDC2151068,N,Y,38.9581927,-77.0698017
MLS Listing,,Single Family Residential,4723 Sheriff Rd NE,Washington,DC,20019,689900,2,1.0,DEANWOOD,814,2605,1924,1,848,,Active,,,https://www.redfin.com/DC/Washington/4723-Sheriff-Rd-NE-20019/home/10124695,BRIGHT MLS,DCDC2151060,N,Y,38.9026957,-76.934569
MLS Listing,,Single Family Residential,3422 Nash Pl SE,Washington,DC,20019,649000,5,1.5,Hillcrest,1739,2063,1954,1,373,,Pre On-Market,,,https://www.redfin.com/DC/Washington/3422-Nash-Pl-SE-20019/home/10143892,BRIGHT MLS,DCDC2150690,N,Y,38.8741108,-76.956362
MLS Listing,,Condo/Co-op,610 Newton Pl NW #3,Washington,DC,20010,650000,2,2.0,Columbia Heights,1253,,1931,1,519,439,Active,,,https://www.redfin.com/DC/Washington/610-Newton-Pl-NW-20010/unit-3/home/96401976,BRIGHT MLS,DCDC2151064,N,Y,38.9335995,-77.0224868
MLS Listing,,Condo/Co-op,2729 Ordway St NW #2,Washington,DC,20008,440000,1,1.0,Forest Hills,773,,1944,1,569,593,Active,July-21-2024 11:00 AM,July-21-2024 01:00 PM,https://www.redfin.com/DC/Washington/2729-Ordway-St-NW-20008/unit-2/home/9990310,BRIGHT MLS,DCDC2150722,N,Y,38.9346045,-77.056199
MLS Listing,,Condo/Co-op,1838 4th St NW Unit 2A,Washington,DC,20001,500000,2,2.0,Ledroit Park,1050,,1910,1,476,434,Pre On-Market,,,https://www.redfin.com/DC/Washington/1838-4th-St-NW-20001/unit-2A/home/10188494,BRIGHT MLS,DCDC2151032,N,Y,38.9155043,-77.0176507
MLS Listing,,Townhouse,2707 1st St NW Unit THE BEND 918,Washington,DC,20001,934900,3,2.5,RESERVOIR DISTRICT,1690,608,2025,1,553,210,Active,,,https://www.redfin.com/DC/Washington/2707-First-St-NW-20001/unit-THE-BEND-918/home/191717414,BRIGHT MLS,DCDC2150460,N,Y,38.9231136,-77.0120671
MLS Listing,,Townhouse,533 Kenyon St NW,Washington,DC,20010,1174000,5,3.5,Columbia Heights,2600,2850,1912,1,452,,Active,July-20-2024 01:00 PM,July-20-2024 03:00 PM,https://www.redfin.com/DC/Washington/533-Kenyon-St-NW-20010/home/10044034,BRIGHT MLS,DCDC2150646,N,Y,38.9303446,-77.0207436
MLS Listing,,Parking,920 W St NW,Washington,DC,20001,2800000,0,,U STREET CORRIDOR,4750,4750,1980,1,589,,Pre On-Market,,,https://www.redfin.com/DC/Washington/920-W-St-NW-20001/home/166594433,BRIGHT MLS,DCDC2150660,N,Y,38.9190214,-77.0255462
MLS Listing,,Condo/Co-op,1869 3rd St NW #1,Washington,DC,20001,524900,2,2.0,Ledroit Park,852,,2013,1,616,250,Active,July-21-2024 01:00 PM,July-21-2024 03:00 PM,https://www.redfin.com/DC/Washington/1869-3rd-St-NW-20001/unit-1/home/81803417,BRIGHT MLS,DCDC2151022,N,Y,38.9152489,-77.0155449
MLS Listing,,Single Family Residential,6223 9th St NW,Washington,DC,20011,1165000,4,3.5,Brightwood,2726,4000,2018,1,427,,Active,July-20-2024 01:00 PM,July-20-2024 03:00 PM,https://www.redfin.com/DC/Washington/6223-9th-St-NW-20011/home/10038721,BRIGHT MLS,DCDC2150982,N,Y,38.9657409,-77.0257032
MLS Listing,,Townhouse,243 12th St NE,Washington,DC,20002,1668000,4,3.5,Old City 1,2793,1800,1910,1,597,,Active,July-18-2024 05:30 PM,July-18-2024 07:00 PM,https://www.redfin.com/DC/Washington/243-12th-St-NE-20002/home/9910920,BRIGHT MLS,DCDC2150796,N,Y,38.8931086,-76.9899587
MLS Listing,,Condo/Co-op,1331 Kenyon St NW #3,Washington,DC,20010,799999,3,2.5,Columbia Heights,1918,,1895,1,417,378,Active,,,https://www.redfin.com/DC/Washington/1331-Kenyon-St-NW-20010/unit-3/home/11745152,BRIGHT MLS,DCDC2151034,N,Y,38.930025,-77.0308983
MLS Listing,,Townhouse,218 15th St NE,Washington,DC,20002,634900,2,1.0,Old City 1,1556,1392,1925,1,408,,Active,,,https://www.redfin.com/DC/Washington/218-15th-St-NE-20002/home/9916620,BRIGHT MLS,DCDC2150886,N,Y,38.8930775,-76.9838915
MLS Listing,,Townhouse,522 Quackenbos St NW,Washington,DC,20011,775000,4,3.0,Brightwood,2118,2327,1934,1,366,,Active,July-20-2024 12:00 PM,July-20-2024 02:00 PM,https://www.redfin.com/DC/Washington/522-Quackenbos-St-NW-20011/home/10055799,BRIGHT MLS,DCDC2150384,N,Y,38.9636202,-77.0211147
MLS Listing,,Townhouse,56 Quincy Pl NE,Washington,DC,20002,950000,3,1.0,Eckington,1722,1500,1900,1,552,,Active,,,https://www.redfin.com/DC/Washington/56-Quincy-Pl-NE-20002/home/10072842,BRIGHT MLS,DCDC2150950,N,Y,38.9120409,-77.006867
MLS Listing,,Condo/Co-op,1514 17th St NW Unit B2,Washington,DC,20036,292500,1,1.0,Old City 2,544,,1917,1,538,441,Active,,,https://www.redfin.com/DC/Washington/1514-17th-St-NW-20036/unit-B2/home/22012754,BRIGHT MLS,DCDC2150580,N,Y,38.9102068,-77.0388586
MLS Listing,,Condo/Co-op,4201 Cathedral Ave NW Unit 401W,Washington,DC,20016,515000,2,2.0,WESLEY HEIGHTS,1468,,1960,1,351,1652,Pre On-Market,July-21-2024 02:00 PM,July-21-2024 04:00 PM,https://www.redfin.com/DC/Washington/4201-Cathedral-Ave-NW-20016/unit-401W/home/9952364,BRIGHT MLS,DCDC2150974,N,Y,38.9306264,-77.0829866
MLS Listing,,Townhouse,815 G St NE,Washington,DC,20002,695000,1,1.0,Old City 1,908,1026,1900,1,765,,Active,July-20-2024 12:00 PM,July-20-2024 02:00 PM,https://www.redfin.com/DC/Washington/815-G-St-NE-20002/home/9902610,BRIGHT MLS,DCDC2151014,N,Y,38.8987431,-76.9941761
MLS Listing,,Townhouse,1253 Holbrook Ter NE Unit B,Washington,DC,20002,799900,3,3.0,GALLAUDET,2200,,2024,1,364,250,Active,,,https://www.redfin.com/DC/Washington/1253-Holbrook-Ter-NE-20002/unit-B/home/190735084,BRIGHT MLS,DCDC2150686,N,Y,38.9068221,-76.9853252
MLS Listing,,Townhouse,1966 Fendall St SE,Washington,DC,20020,415000,3,2.5,Anacostia,1326,1323,1937,1,313,,Active,,,https://www.redfin.com/DC/Washington/1966-Fendall-St-SE-20020/home/10157665,BRIGHT MLS,DCDC2150454,N,Y,38.8652618,-76.979559
MLS Listing,,Townhouse,1604 Massachusetts Ave SE,Washington,DC,20003,1199999,4,3.5,Old City 1,1977,1775,1925,1,607,,Active,,,https://www.redfin.com/DC/Washington/1604-Massachusetts-Ave-SE-20003/home/9920276,BRIGHT MLS,DCDC2150920,N,Y,38.886716,-76.9819039
MLS Listing,,Townhouse,1738 D St SE,Washington,DC,20003,1049900,3,3.5,OLD CITY #1,1652,1200,1925,1,636,,Active,,,https://www.redfin.com/DC/Washington/1738-D-St-SE-20003/home/9921748,BRIGHT MLS,DCDC2151004,N,Y,38.8842837,-76.9794011
MLS Listing,,Condo/Co-op,5212 F St SE #1,Washington,DC,20019,235000,2,2.0,Marshall Heights,833,,2008,1,282,,Pre On-Market,,,https://www.redfin.com/DC/Washington/5212-F-St-SE-20019/unit-1/home/28497827,BRIGHT MLS,DCDC2150984,N,Y,38.8816073,-76.927597
MLS Listing,,Townhouse,4214 14th St NW,Washington,DC,20011,1399900,5,3.5,COLUMBIA HEIGHTS,2806,1400,1927,1,499,,Active,,,https://www.redfin.com/DC/Washington/4214-14th-St-NW-20011/home/10015944,BRIGHT MLS,DCDC2150998,N,Y,38.9424628,-77.0329905
MLS Listing,,Townhouse,161 Danbury St SW,Washington,DC,20032,425000,2,2.5,Congress Heights,1268,560,2006,1,335,160,Active,,,https://www.redfin.com/DC/Washington/161-Danbury-St-SW-20032/home/21647351,BRIGHT MLS,DCDC2150922,N,Y,38.8279474,-77.0117253
MLS Listing,,Townhouse,146 S S St NW Unit 146-A,Washington,DC,20001,1299000,5,3.5,Eckington,2115,,2021,1,614,278,Active,July-20-2024 01:00 PM,July-20-2024 03:00 PM,https://www.redfin.com/DC/Washington/146-S-S-ST-NW-20001/unit-146-A/home/191716187,BRIGHT MLS,DCDC2148846,N,Y,38.9139,-77.01376
MLS Listing,,Townhouse,3731 Jamison St NE,Washington,DC,20018,675000,4,4.5,Fort Lincoln,2348,,2017,1,287,178,Active,July-20-2024 12:00 PM,July-20-2024 02:00 PM,https://www.redfin.com/DC/Washington/3731-Jamison-St-NE-20018/home/166662193,BRIGHT MLS,DCDC2149460,N,Y,38.9244872,-76.952051
MLS Listing,,Townhouse,182 35th St NE,Washington,DC,20019,375000,2,1.0,Deanwood,780,1678,1941,1,481,,Pre On-Market,,,https://www.redfin.com/DC/Washington/182-35th-St-NE-20019/home/10118359,BRIGHT MLS,DCDC2150808,N,Y,38.8923132,-76.9537966
MLS Listing,,Condo/Co-op,1000 New Jersey Ave SE #602,Washington,DC,20003,509900,2,1.0,NAVY YARD,823,,2006,1,620,426,Active,,,https://www.redfin.com/DC/Washington/1000-New-Jersey-Ave-SE-20003/unit-602/home/190715979,BRIGHT MLS,DCDC2150788,N,Y,38.8782502,-77.0045913
MLS Listing,,Townhouse,1135 7th St NE,Washington,DC,20002,800000,4,2.5,Old City 1,1800,1307,1910,1,444,,Active,,,https://www.redfin.com/DC/Washington/1135-7th-St-NE-20002/home/9900860,BRIGHT MLS,DCDC2150440,N,Y,38.9047768,-76.9959332
MLS Listing,,Condo/Co-op,2201 L St NW #218,Washington,DC,20037,269900,0,1.0,Central,514,,1967,1,525,600,Pre On-Market,,,https://www.redfin.com/DC/Washington/2201-L-St-NW-20037/unit-218/home/9050007,BRIGHT MLS,DCDC2150964,N,Y,38.904037,-77.049292
MLS Listing,,Condo/Co-op,2004 3rd St NE #303,Washington,DC,20002,339000,1,1.0,Eckington,605,,1954,1,560,449,Active,July-20-2024 02:00 PM,July-20-2024 04:00 PM,https://www.redfin.com/DC/Washington/2004-3rd-St-NE-20002/unit-303/home/12529990,BRIGHT MLS,DCDC2149986,N,Y,38.9173443,-77.0023023
MLS Listing,,Single Family Residential,10 Underwood Pl NE,Washington,DC,20012,749900,4,3.0,Takoma,2418,5091,1964,1,310,,Active,July-20-2024 12:00 PM,July-20-2024 02:00 PM,https://www.redfin.com/DC/Washington/10-Underwood-Pl-NE-20012/home/10079481,BRIGHT MLS,DCDC2150962,N,Y,38.969312,-77.008266
MLS Listing,,Condo/Co-op,1026 16th St NW #505,Washington,DC,20036,575000,1,1.0,Central,850,,1923,1,676,1400,Active,,,https://www.redfin.com/DC/Washington/1026-16th-St-NW-20036/unit-505/home/191651173,BRIGHT MLS,DCDC2150780,N,Y,38.9035254,-77.0368814
MLS Listing,,Condo/Co-op,1300 4th St SE #908,Washington,DC,20003,775000,2,2.0,Washington Navy Yard,826,,2018,1,938,930,Pre On-Market,July-28-2024 12:00 PM,July-28-2024 02:00 PM,https://www.redfin.com/DC/Washington/1300-4th-St-SE-20003/unit-908/home/167178113,BRIGHT MLS,DCDC2150896,N,Y,38.8746658,-77.0001717
MLS Listing,,Condo/Co-op,4725 3rd Pl NW #4,Washington,DC,20011,549000,2,2.0,PETWORTH,1166,,1936,1,471,191,Active,,,https://www.redfin.com/DC/Washington/4725-3rd-Pl-NW-20011/unit-4/home/189721214,BRIGHT MLS,DCDC2150958,N,Y,38.9482124,-77.0163905
MLS Listing,,Single Family Residential,3309 Otis St,Mount Rainier,MD,20712,525000,4,2.5,MT RAINIER- FUNKHOUSERS 32ND STREET ADDN,1824,3951,1923,1,288,,Active,,,https://www.redfin.com/MD/Mount-Rainier/3309-Otis-St-20712/home/10976448,BRIGHT MLS,MDPG2119286,N,Y,38.9344057,-76.9613511
MLS Listing,,Townhouse,1911 11th St NW,Washington,DC,20001,2249000,4,3.5,Old City 2,2975,1593,1910,1,756,,Pre On-Market,,,https://www.redfin.com/DC/Washington/1911-11th-St-NW-20001/home/40133377,BRIGHT MLS,DCDC2150672,N,Y,38.9161617,-77.0267352
MLS Listing,,Townhouse,517 23rd Pl NE,Washington,DC,20002,699999,3,3.5,Old City 1,1640,1464,1930,1,427,,Active,July-21-2024 02:00 PM,July-21-2024 04:00 PM,https://www.redfin.com/DC/Washington/517-23rd-Pl-NE-20002/home/10112486,BRIGHT MLS,DCDC2150832,N,Y,38.8965876,-76.9733187
MLS Listing,,Single Family Residential,1353 Hamilton St NW,Washington,DC,20011,899000,4,2.5,16th Street Heights,1634,5469,1936,1,550,,Active,July-21-2024 12:30 PM,July-21-2024 03:30 PM,https://www.redfin.com/DC/Washington/1353-Hamilton-St-NW-20011/home/10024798,BRIGHT MLS,DCDC2150810,N,Y,38.9531559,-77.0318155
MLS Listing,,Condo/Co-op,738 Longfellow St NW #108,Washington,DC,20011,345000,2,1.0,Petworth,792,389,1900,1,436,567,Active,,,https://www.redfin.com/DC/Washington/738-Longfellow-St-NW-20011/unit-108/home/12530565,BRIGHT MLS,DCDC2150632,N,Y,38.9571059,-77.0236114
MLS Listing,,Townhouse,1854 3rd St NW,Washington,DC,20001,1995000,6,3.5,Ledroit Park,3152,2800,1907,1,633,,Active,July-20-2024 01:00 PM,July-20-2024 03:00 PM,https://www.redfin.com/DC/Washington/1854-3rd-St-NW-20001/home/10046443,BRIGHT MLS,DCDC2150716,N,Y,38.9154269,-77.0158825
MLS Listing,,Condo/Co-op,1436 Meridian Pl NW #105,Washington,DC,20010,399000,2,2.0,Columbia Heights,624,,1910,1,639,316,Active,July-21-2024 02:00 PM,July-21-2024 04:00 PM,https://www.redfin.com/DC/Washington/1436-Meridian-Pl-NW-20010/unit-105/home/10014684,BRIGHT MLS,DCDC2149440,N,Y,38.9334125,-77.0343625
MLS Listing,,Condo/Co-op,2001 12th St NW #412,Washington,DC,20009,608900,2,2.0,Old City 2,1053,,2000,1,578,765,Active,July-21-2024 11:00 AM,July-21-2024 01:00 PM,https://www.redfin.com/DC/Washington/2001-12th-St-NW-20009/unit-412/home/10183233,BRIGHT MLS,DCDC2150546,N,Y,38.9176358,-77.0278982
MLS Listing,,Townhouse,3506 Idaho Ave NW,Washington,DC,20016,1795000,4,3.5,Cleveland Park,2700,3107,1977,1,665,,Active,July-21-2024 01:00 PM,July-21-2024 03:00 PM,https://www.redfin.com/DC/Washington/3506-Idaho-Ave-NW-20016/home/9973421,BRIGHT MLS,DCDC2145964,N,Y,38.9367787,-77.0730628
MLS Listing,,Condo/Co-op,1300 4th St SE #501,Washington,DC,20003,465000,1,1.0,Washington Navy Yard,575,,2018,1,809,589,Active,July-20-2024 12:00 PM,July-20-2024 02:00 PM,https://www.redfin.com/DC/Washington/1300-4th-St-SE-20003/unit-501/home/147613515,BRIGHT MLS,DCDC2148268,N,Y,38.8746658,-77.0001717
MLS Listing,,Single Family Residential,710 Van Buren St NW,Washington,DC,20012,999995,4,3.0,Brightwood,2040,4730,1934,1,490,,Active,July-20-2024 10:00 AM,July-20-2024 12:00 PM,https://www.redfin.com/DC/Washington/710-Van-Buren-St-NW-20012/home/10053375,BRIGHT MLS,DCDC2146754,N,Y,38.9697262,-77.0230041
MLS Listing,,Condo/Co-op,2337 Champlain St NW #107,Washington,DC,20009,599999,2,1.0,Mount Pleasant,914,,2016,1,656,517,Active,July-21-2024 11:00 AM,July-21-2024 01:00 PM,https://www.redfin.com/DC/Washington/2337-Champlain-St-NW-20009/unit-107/home/113603623,BRIGHT MLS,DCDC2150826,N,Y,38.9215028,-77.0409615
MLS Listing,,Townhouse,5411 Illinois Ave NW,Washington,DC,20011,869000,4,4.5,Petworth,2386,1842,1910,1,364,,Active,July-20-2024 01:00 PM,July-20-2024 03:00 PM,https://www.redfin.com/DC/Washington/5411-Illinois-Ave-NW-20011/home/10039686,BRIGHT MLS,DCDC2149346,N,Y,38.9555512,-77.0268673
MLS Listing,,Condo/Co-op,1714 Euclid St NW #6,Washington,DC,20009,499000,2,1.5,ADAMS MORGAN,569,,2024,1,877,146,Active,,,https://www.redfin.com/DC/Washington/1714-Euclid-St-NW-20009/unit-6/home/190704202,BRIGHT MLS,DCDC2150250,N,Y,38.9229464,-77.0394799
MLS Listing,,Condo/Co-op,1825 T St NW #705,Washington,DC,20009,309999,0,1.0,Old City 2,428,,1951,1,724,427,Active,,,https://www.redfin.com/DC/Washington/1825-T-St-NW-20009/unit-705/home/9061108,BRIGHT MLS,DCDC2149782,N,Y,38.9157471,-77.0427618
MLS Listing,,Single Family Residential,4337 Nebraska Ave NW,Washington,DC,20016,1095000,3,2.5,American University,2052,4050,1936,1,534,,Active,July-21-2024 11:00 AM,July-21-2024 01:00 PM,https://www.redfin.com/DC/Washington/4337-Nebraska-Ave-NW-20016/home/9962841,BRIGHT MLS,DCDC2149586,N,Y,38.9451911,-77.079403
MLS Listing,,Condo/Co-op,1332 Belmont St NW #101,Washington,DC,20009,849900,2,2.0,Columbia Heights,1161,,2008,1,732,401,Active,July-20-2024 01:00 PM,July-20-2024 03:00 PM,https://www.redfin.com/DC/Washington/1332-Belmont-St-NW-20009/unit-101/home/28497848,BRIGHT MLS,DCDC2150240,N,Y,38.9209604,-77.0309903
MLS Listing,,Condo/Co-op,1714 Euclid St NW #5,Washington,DC,20009,445000,1,1.5,ADAMS MORGAN,509,,2024,1,874,132,Active,,,https://www.redfin.com/DC/Washington/1714-Euclid-St-NW-20009/unit-5/home/190704201,BRIGHT MLS,DCDC2150258,N,Y,38.9229464,-77.0394799
MLS Listing,,Condo/Co-op,1350 Maryland Ave NE #412,Washington,DC,20002,399999,1,1.0,Old City 1,697,,2015,1,574,396,Active,July-20-2024 11:00 AM,July-20-2024 01:00 PM,https://www.redfin.com/DC/Washington/1350-Maryland-Ave-NE-20002/unit-412/home/113744963,BRIGHT MLS,DCDC2145340,N,Y,38.8994587,-76.9859104
MLS Listing,,Single Family Residential,3206 Oliver St NW,Washington,DC,20015,1375000,4,2.5,Chevy Chase,2901,3750,1926,1,474,,Active,July-21-2024 12:00 PM,July-21-2024 02:00 PM,https://www.redfin.com/DC/Washington/3206-Oliver-St-NW-20015/home/9980551,BRIGHT MLS,DCDC2150610,N,Y,38.9665313,-77.0643561
MLS Listing,,Townhouse,524 25th Pl NE,Washington,DC,20002,590000,2,2.0,Old City 1,1392,1464,1929,1,424,,Active,July-21-2024 12:00 PM,July-21-2024 04:00 PM,https://www.redfin.com/DC/Washington/524-25th-Pl-NE-20002/home/10112878,BRIGHT MLS,DCDC2148540,N,Y,38.8967945,-76.971826
MLS Listing,,Condo/Co-op,522 21st St NW Unit 311A,Washington,DC,20006,201000,0,1.0,FOGGY BOTTOM,504,,1989,1,399,600,Pre On-Market,,,https://www.redfin.com/DC/Washington/522-21st-St-NW-20006/unit-311A/home/9055299,BRIGHT MLS,DCDC2150952,N,Y,38.8967925,-77.0469566
MLS Listing,,Townhouse,2014 N Capitol St NW,Washington,DC,20002,1199900,4,2.5,Ledroit Park,2502,1779,1909,1,480,,Active,July-21-2024 12:00 PM,July-21-2024 02:00 PM,https://www.redfin.com/DC/Washington/2014-N-Capitol-St-NW-20002/home/10048992,BRIGHT MLS,DCDC2150930,N,Y,38.9173846,-77.0094177
MLS Listing,,Condo/Co-op,3810 V St SE #301,Washington,DC,20020,141328,1,1.0,Hillcrest,598,,1940,1,236,363,Active,,,https://www.redfin.com/DC/Washington/3810-V-St-SE-20020/unit-301/home/10155131,BRIGHT MLS,DCDC2150944,N,Y,38.8647245,-76.951445
MLS Listing,,Townhouse,3435 24th St SE,Washington,DC,20020,399900,3,2.0,Randle Heights,1104,2675,1947,1,362,,Active,July-20-2024 02:00 PM,July-20-2024 04:00 PM,https://www.redfin.com/DC/Washington/3435-24th-St-SE-20020/home/10162127,BRIGHT MLS,DCDC2150096,N,Y,38.8469022,-76.9709259
MLS Listing,,Condo/Co-op,5754 Colorado Ave NW #201,Washington,DC,20011,249900,1,1.0,16th Street Heights,550,,1938,1,454,420,Active,,,https://www.redfin.com/DC/Washington/5754-Colorado-Ave-NW-20011/unit-201/home/10349549,BRIGHT MLS,DCDC2148270,N,Y,38.9600636,-77.0304715
MLS Listing,,Condo/Co-op,2520 41st St NW #3,Washington,DC,20007,399500,2,1.0,Glover Park,947,,1938,1,422,580,Pre On-Market,,,https://www.redfin.com/DC/Washington/2520-41st-St-NW-20007/unit-3/home/191619264,BRIGHT MLS,DCDC2147476,N,Y,38.9233733,-77.0809457
MLS Listing,,Townhouse,1644 L St NE,Washington,DC,20002,545000,2,1.0,Trinidad,840,1274,1925,1,649,,Pre On-Market,July-20-2024 01:00 PM,July-20-2024 04:00 PM,https://www.redfin.com/DC/Washington/1644-L-St-NE-20002/home/10110802,BRIGHT MLS,DCDC2150202,N,Y,38.903878,-76.9801484
MLS Listing,,Townhouse,3902 Southern Ave SE,Washington,DC,20020,280000,2,1.0,Hillcrest,878,,1940,1,319,491,Active,July-21-2024 02:00 PM,July-21-2024 04:00 PM,https://www.redfin.com/DC/Washington/3902-Southern-Ave-SE-20020/home/10153805,BRIGHT MLS,DCDC2150868,N,Y,38.8622255,-76.9490387
MLS Listing,,Condo/Co-op,1901 16th St NW #202,Washington,DC,20009,265000,0,1.0,Old City 2,381,,1940,1,696,385,Active,July-21-2024 12:00 PM,July-21-2024 02:00 PM,https://www.redfin.com/DC/Washington/1901-16th-St-NW-20009/unit-202/home/9867810,BRIGHT MLS,DCDC2150508,N,Y,38.9158033,-77.0361622
MLS Listing,,Condo/Co-op,1117 10th St NW #607,Washington,DC,20001,325000,0,1.0,Old City 2,548,,2006,1,593,487,Active,,,https://www.redfin.com/DC/Washington/1117-10th-St-NW-20001/unit-607/home/11746649,BRIGHT MLS,DCDC2150924,N,Y,38.9046801,-77.0258028
MLS Listing,,Townhouse,717 Gallatin St NW,Washington,DC,20011,825000,3,3.0,Petworth,1802,2283,1927,1,458,,Active,July-20-2024 02:00 PM,July-20-2024 04:00 PM,https://www.redfin.com/DC/Washington/717-Gallatin-St-NW-20011/home/10051938,BRIGHT MLS,DCDC2150688,N,Y,38.9521813,-77.022841
MLS Listing,,Townhouse,728 Fairmont St NW,Washington,DC,20001,775000,3,1.5,Columbia Heights,992,2280,1926,1,781,,Active,July-20-2024 12:00 PM,July-20-2024 03:00 PM,https://www.redfin.com/DC/Washington/728-Fairmont-St-NW-20001/home/10031523,BRIGHT MLS,DCDC2150504,N,Y,38.9248679,-77.0236085
MLS Listing,,Townhouse,333 Raleigh St SE,Washington,DC,20032,549900,4,4.0,Congress Heights,1354,2334,1926,1,406,,Active,July-21-2024 12:00 PM,July-21-2024 03:00 PM,https://www.redfin.com/DC/Washington/333-Raleigh-St-SE-20032/home/10166080,BRIGHT MLS,DCDC2150928,N,Y,38.8438299,-77.0003007
MLS Listing,,Townhouse,4750 41st St NW Unit TOWNHOUSE 4,Washington,DC,20016,1389000,3,2.5,CHEVY CHASE,2334,,2002,1,595,850,Active,July-19-2024 04:00 PM,July-19-2024 06:00 PM,https://www.redfin.com/DC/Washington/4750-41st-St-NW-20016/unit-4/home/10183601,BRIGHT MLS,DCDC2150358,N,Y,38.9519126,-77.0804716
MLS Listing,,Multi-Family (2-4 Unit),1330 28th St SE,Washington,DC,20020,824900,,,Hillcrest,3048,7374,1936,1,271,,Pre On-Market,,,https://www.redfin.com/DC/Washington/1330-28th-St-SE-20020/home/10146213,BRIGHT MLS,DCDC2150098,N,Y,38.8734652,-76.9674908
MLS Listing,,Single Family Residential,3603 24th St NE,Washington,DC,20018,769000,3,3.5,Woodridge,1989,2650,1926,1,387,,Active,July-18-2024 05:00 PM,July-18-2024 07:00 PM,https://www.redfin.com/DC/Washington/3603-24th-St-NE-20018/home/10104938,BRIGHT MLS,DCDC2150588,N,Y,38.9343302,-76.9719346
MLS Listing,,Parking,1245 13th St NW Unit P41,Washington,DC,20005,50000,0,,Old City 2,,,1981,1,,34,Active,,,https://www.redfin.com/DC/Washington/1245-13th-St-NW-20005/unit-P41/home/9875139,BRIGHT MLS,DCDC2150636,N,Y,38.9070873,-77.0292664
MLS Listing,,Multi-Family (2-4 Unit),463 Orange St SE,Washington,DC,20032,699000,4,4.0,Congress Heights,2574,5060,1942,1,272,,Active,,,https://www.redfin.com/DC/Washington/463-Orange-St-SE-20032/home/10166904,BRIGHT MLS,DCDC2150898,N,Y,38.845705,-77.0020461
MLS Listing,,Condo/Co-op,920 I St NW #514,Washington,DC,20001,1114900,2,2.0,Central,1200,,2013,1,929,1748,Active,July-21-2024 01:00 PM,July-21-2024 03:00 PM,https://www.redfin.com/DC/Washington/920-I-St-NW-20001/unit-514/home/55187031,BRIGHT MLS,DCDC2149716,N,Y,38.9007252,-77.0244682
MLS Listing,,Townhouse,3009 M St SE,Washington,DC,20019,450000,3,2.0,Hillcrest,1246,1899,1939,1,361,,Active,,,https://www.redfin.com/DC/Washington/3009-M-St-SE-20019/home/10143563,BRIGHT MLS,DCDC2149904,N,Y,38.8758447,-76.9643638
MLS Listing,,Condo/Co-op,2305 Nicholson SE #204,Washington,DC,20020,285000,1,1.0,Anacostia,527,,2024,1,541,145,Active,July-20-2024 12:00 PM,July-20-2024 02:00 PM,https://www.redfin.com/DC/Washington/2305-Nicholson-St-SE-20020/unit-204/home/191515395,BRIGHT MLS,DCDC2150904,N,Y,38.873066,-76.9732959
MLS Listing,,Single Family Residential,1925 Lawrence St NE,Washington,DC,20018,1675000,6,4.5,Woodridge,3318,6350,1916,1,505,,Pre On-Market,,,https://www.redfin.com/DC/Washington/1925-Lawrence-St-NE-20018/home/10102126,BRIGHT MLS,DCDC2150876,N,Y,38.931963,-76.977245
MLS Listing,,Condo/Co-op,608 Jefferson St NW #302,Washington,DC,20011,357900,2,1.0,Petworth,693,,1957,1,516,361,Active,July-21-2024 01:00 PM,July-21-2024 03:00 PM,https://www.redfin.com/DC/Washington/608-Jefferson-St-NW-20011/unit-302/home/12530149,BRIGHT MLS,DCDC2149842,N,Y,38.9552118,-77.02103
MLS Listing,,Townhouse,2119 Observatory Pl NW,Washington,DC,20007,1250000,4,2.0,Glover Park,1538,1349,1937,1,813,,Active,July-19-2024 04:00 PM,July-19-2024 06:00 PM,https://www.redfin.com/DC/Washington/2119-Observatory-Pl-NW-20007/home/9934973,BRIGHT MLS,DCDC2149600,N,Y,38.9189004,-77.0736128
MLS Listing,,Condo/Co-op,1000 New Jersey Ave SE #619,Washington,DC,20003,669900,2,2.0,NAVY YARD,1100,,2006,1,609,547,Active,,,https://www.redfin.com/DC/Washington/1000-New-Jersey-Ave-SE-20003/unit-619/home/187500127,BRIGHT MLS,DCDC2150786,N,Y,38.8782502,-77.0045913
MLS Listing,,Townhouse,417 11th St NE,Washington,DC,20002,899000,3,2.0,Old City 1,2094,1216,1910,1,429,,Active,,,https://www.redfin.com/DC/Washington/417-11th-St-NE-20002/home/9908328,BRIGHT MLS,DCDC2150524,N,Y,38.8953009,-76.991272
MLS Listing,,Townhouse,29 Q St NE #2,Washington,DC,20002,789999,3,3.0,Eckington,1549,,1928,1,510,306,Pre On-Market,July-20-2024 11:00 AM,July-20-2024 01:00 PM,https://www.redfin.com/DC/Washington/29-Q-St-NE-20002/unit-2/home/84884362,BRIGHT MLS,DCDC2148828,N,Y,38.9109275,-77.0077413
MLS Listing,,Townhouse,3109 Hawthorne Dr NE #3109,Washington,DC,20017,490000,3,2.5,Brookland,1375,,1981,1,356,497,Active,July-20-2024 01:00 PM,July-20-2024 03:00 PM,https://www.redfin.com/DC/Washington/3109-Hawthorne-Dr-NE-20017/unit-3109/home/10070416,BRIGHT MLS,DCDC2147946,N,Y,38.928296,-77.006824
MLS Listing,,Condo/Co-op,1644 Park Rd NW Unit D,Washington,DC,20010,734900,2,2.0,Mount Pleasant,1033,,1907,1,711,115,Active,,,https://www.redfin.com/DC/Washington/1644-Park-Rd-NW-20010/unit-D/home/190400783,BRIGHT MLS,DCDC2150846,N,Y,38.9319575,-77.0376873
MLS Listing,,Condo/Co-op,1307 Longfellow St NW #4,Washington,DC,20011,335000,2,1.0,16th Street Heights,634,,2024,1,528,151,Active,July-20-2024 01:00 PM,July-20-2024 03:00 PM,https://www.redfin.com/DC/Washington/1307-Longfellow-St-NW-20011/unit-4/home/191613774,BRIGHT MLS,DCDC2150864,N,Y,38.9574755,-77.0305294
MLS Listing,,Condo/Co-op,1307 Longfellow St NW Unit 7A,Washington,DC,20011,455000,3,3.0,16th Street Heights,899,,2024,1,506,216,Active,July-20-2024 01:00 PM,July-20-2024 03:00 PM,https://www.redfin.com/DC/Washington/1307-Longfellow-St-NW-20011/unit-7A/home/191613699,BRIGHT MLS,DCDC2150862,N,Y,38.9574755,-77.0305294
MLS Listing,,Condo/Co-op,1307 Longfellow St NW Unit 9B,Washington,DC,20011,440000,2,2.0,16th Street Heights,830,,2024,1,530,194,Active,July-20-2024 01:00 PM,July-20-2024 03:00 PM,https://www.redfin.com/DC/Washington/1307-Longfellow-St-NW-20011/unit-9B/home/191613574,BRIGHT MLS,DCDC2150856,N,Y,38.9574755,-77.0305294
MLS Listing,,Condo/Co-op,1307 Longfellow St NW Unit 10A,Washington,DC,20011,425000,2,2.0,16th Street Heights,760,,2024,1,559,172,Active,July-20-2024 01:00 PM,July-20-2024 03:00 PM,https://www.redfin.com/DC/Washington/1307-Longfellow-St-NW-20011/unit-10A/home/191613026,BRIGHT MLS,DCDC2150852,N,Y,38.9574755,-77.0305294
MLS Listing,,Condo/Co-op,701 Pennsylvania Ave NW #1126,Washington,DC,20004,549000,1,1.0,Central,747,,1991,1,735,837,Active,,,https://www.redfin.com/DC/Washington/701-Pennsylvania-Ave-NW-20004/unit-1126/home/9878700,BRIGHT MLS,DCDC2149258,N,Y,38.8945661,-77.0225318
MLS Listing,,Condo/Co-op,919 12th St NE #501,Washington,DC,20002,479900,1,1.0,Old City 1,712,,2023,1,674,299,Active,July-21-2024 01:00 PM,July-21-2024 03:00 PM,https://www.redfin.com/DC/Washington/919-12th-St-NE-20002/unit-501/home/191613020,BRIGHT MLS,DCDC2150410,N,Y,38.9019564,-76.9896959
MLS Listing,,Condo/Co-op,919 12th St NE #102,Washington,DC,20002,479900,2,1.0,Old City 1,916,,2023,1,524,386,Active,July-21-2024 01:00 PM,July-21-2024 03:00 PM,https://www.redfin.com/DC/Washington/919-12th-St-NE-20002/unit-102/home/182756557,BRIGHT MLS,DCDC2150418,N,Y,38.9019833,-76.9897326
MLS Listing,,Condo/Co-op,919 12th St NE #502,Washington,DC,20002,649900,3,2.0,Old City 1,1172,,2023,1,555,511,Active,July-21-2024 01:00 PM,July-21-2024 03:00 PM,https://www.redfin.com/DC/Washington/919-12th-St-NE-20002/unit-502/home/180476919,BRIGHT MLS,DCDC2150414,N,Y,38.9019833,-76.9897326
MLS Listing,,Condo/Co-op,919 12th St NE #503,Washington,DC,20002,609900,2,2.0,Old City 1,1150,,2023,1,530,478,Active,July-21-2024 01:00 PM,July-21-2024 03:00 PM,https://www.redfin.com/DC/Washington/919-12th-St-NE-20002/unit-503/home/190990934,BRIGHT MLS,DCDC2150416,N,Y,38.9019564,-76.9896959
MLS Listing,,Condo/Co-op,611 Kennedy St NW #402,Washington,DC,20011,499500,3,2.0,Petworth,1200,,2023,1,416,245,Active,,,https://www.redfin.com/DC/Washington/611-Kennedy-St-NW-20011/unit-402/home/189677107,BRIGHT MLS,DCDC2150850,N,Y,38.9566326,-77.0214187
MLS Listing,,Condo/Co-op,1401 R St NW #303,Washington,DC,20009,649000,1,1.0,Old City 2,799,,1920,1,812,361,Active,July-21-2024 02:00 PM,July-21-2024 04:00 PM,https://www.redfin.com/DC/Washington/1401-R-St-NW-20009/unit-303/home/55187211,BRIGHT MLS,DCDC2149926,N,Y,38.9127883,-77.0322335
MLS Listing,,Single Family Residential,4046 Mansion Dr NW,Washington,DC,20007,2349000,5,3.5,Burleith,3270,1826,1989,1,718,595,Pre On-Market,July-21-2024 02:00 PM,July-21-2024 04:00 PM,https://www.redfin.com/DC/Washington/4046-Mansion-Dr-NW-20007/home/9937212,BRIGHT MLS,DCDC2150820,N,Y,38.9163167,-77.0793504
MLS Listing,,Single Family Residential,2122 Rand Pl NE,Washington,DC,20002,900000,5,3.5,Woodridge,2451,5700,1929,1,367,,Active,July-19-2024 05:00 PM,July-19-2024 06:30 PM,https://www.redfin.com/DC/Washington/2122-Rand-Pl-NE-20002/home/10109780,BRIGHT MLS,DCDC2131704,N,Y,38.9135522,-76.9744098
MLS Listing,,Condo/Co-op,1102 Staples St NE #1,Washington,DC,20017,449900,3,2.0,H STREET CORRIDOR,1002,,2022,1,449,229,Pre On-Market,,,https://www.redfin.com/DC/Washington/1102-Staples-St-NE-20002/unit-1/home/183935240,BRIGHT MLS,DCDC2150816,N,Y,38.9012587,-76.9859818
MLS Listing,,Single Family Residential,1421 Spring Rd NW Unit C02,Washington,DC,20010,285000,1,1.0,COLUMBIA HEIGHTS,485,,2023,1,588,143,Active,,,https://www.redfin.com/DC/Washington/1421-Spring-Rd-NW-20010/unit-C02/home/188728056,BRIGHT MLS,DCDC2150596,N,Y,38.9375508,-77.0338902
MLS Listing,,Townhouse,3449 23rd St SE,Washington,DC,20020,449990,2,2.0,Randle Heights,800,2012,1947,1,562,,Pre On-Market,,,https://www.redfin.com/DC/Washington/3449-23rd-St-SE-20020/home/10162231,BRIGHT MLS,DCDC2150798,N,Y,38.8462774,-76.9718896
MLS Listing,,Condo/Co-op,1101 3rd St SW #612,Washington,DC,20024,294000,1,1.0,R. L. A. SW,526,,1960,1,559,574,Pre On-Market,,,https://www.redfin.com/DC/Washington/1101-3rd-St-SW-20024/unit-612/home/28496904,BRIGHT MLS,DCDC2150792,N,Y,38.8770732,-77.0158287
MLS Listing,,Condo/Co-op,1930 18th St NW #32,Washington,DC,20009,397500,1,1.0,Old City 2,516,,1908,1,770,352,Active,July-18-2024 06:00 PM,July-18-2024 07:00 PM,https://www.redfin.com/DC/Washington/1930-18th-St-NW-20009/unit-32/home/9061399,BRIGHT MLS,DCDC2150630,N,Y,38.9164519,-77.0419264
MLS Listing,,Single Family Residential,2111 Bunker Hill Rd NE,Washington,DC,20018,749000,4,3.0,Michigan Park,2072,2544,1936,1,361,,Active,,,https://www.redfin.com/DC/Washington/2111-Bunker-Hill-Rd-NE-20018/home/10103313,BRIGHT MLS,DCDC2150284,N,Y,38.9399528,-76.9745787
MLS Listing,,Condo/Co-op,922 24th St NW #807,Washington,DC,20037,239000,0,1.0,Foggy Bottom,413,,1962,1,579,599,Active,,,https://www.redfin.com/DC/Washington/922-24th-St-NW-20037/unit-807/home/9044305,BRIGHT MLS,DCDC2148468,N,Y,38.9015335,-77.0516798
MLS Listing,,Single Family Residential,4014 G St SE,Washington,DC,20019,525000,3,3.0,Fort Dupont Park,2091,5892,1956,1,251,,Active,,,https://www.redfin.com/DC/Washington/4014-G-St-SE-20019/home/10139836,BRIGHT MLS,DCDC2150784,N,Y,38.8801373,-76.9435643
MLS Listing,,Condo/Co-op,4613 Minnesota Ave NE #2,Washington,DC,20019,350000,2,2.0,Deanwood,832,,2021,1,421,280,Active,,,https://www.redfin.com/DC/Washington/4613-Minnesota-Ave-NE-20019/unit-2/home/178313485,BRIGHT MLS,DCDC2149920,N,Y,38.9062814,-76.9360065
MLS Listing,,Townhouse,925 4th St SE,Washington,DC,20003,950000,4,3.0,Old City 1,1620,528,2011,1,586,97,Active,July-21-2024 01:00 PM,July-21-2024 03:00 PM,https://www.redfin.com/DC/Washington/925-4th-St-SE-20003/home/40511125,BRIGHT MLS,DCDC2150536,N,Y,38.8786518,-77.0007918
MLS Listing,,Condo/Co-op,3927 14th St NW #3,Washington,DC,20011,575000,2,2.0,Columbia Heights,950,,2021,1,605,230,Active,,,https://www.redfin.com/DC/Washington/3927-14th-St-NW-20011/unit-3/home/174590407,BRIGHT MLS,DCDC2150782,N,Y,38.939424,-77.032361
MLS Listing,,Multi-Family (2-4 Unit),1944 3rd St NE,Washington,DC,20002,5500000,36,14.0,Eckington,3570,7013,2023,1,1541,,Active,,,https://www.redfin.com/DC/Washington/1944-3rd-St-NE-20002/home/10174945,BRIGHT MLS,DCDC2150330,N,Y,38.9169145,-77.0024128
MLS Listing,,Single Family Residential,2415 34th St SE,Washington,DC,20020,600000,4,3.0,Hillcrest,2810,6667,1942,1,214,,Active,July-20-2024 01:00 PM,July-20-2024 03:00 PM,https://www.redfin.com/DC/Washington/2415-34th-St-SE-20020/home/10155750,BRIGHT MLS,DCDC2150778,N,Y,38.8598876,-76.9580273
MLS Listing,,Condo/Co-op,1150 K St NW #1202,Washington,DC,20005,599000,2,2.0,Central,888,,2005,2,675,895,Active,July-21-2024 11:00 AM,July-21-2024 01:00 PM,https://www.redfin.com/DC/Washington/1150-K-St-NW-20005/unit-1202/home/10347640,BRIGHT MLS,DCDC2150774,N,Y,38.9022175,-77.0277387
MLS Listing,,Townhouse,754 Morton St NW,Washington,DC,20010,799900,4,2.0,Columbia Heights,1344,2306,1916,2,595,,Active,July-20-2024 12:00 PM,July-20-2024 02:00 PM,https://www.redfin.com/DC/Washington/754-Morton-St-NW-20010/home/10033067,BRIGHT MLS,DCDC2150378,N,Y,38.9317132,-77.0252665
MLS Listing,,Single Family Residential,5308 13th St NW,Washington,DC,20011,1450000,5,4.5,16th Street Heights,3300,4374,1922,2,439,,Active,July-20-2024 11:00 AM,July-20-2024 01:00 PM,https://www.redfin.com/DC/Washington/5308-13th-St-NW-20011/home/10024552,BRIGHT MLS,DCDC2144774,N,Y,38.9547655,-77.0300667
MLS Listing,,Townhouse,1928 1st St NW,Washington,DC,20001,1350000,7,4.5,Ledroit Park,2597,1730,1928,2,520,,Active,,,https://www.redfin.com/DC/Washington/1928-1st-St-NE-20001/home/10048624,BRIGHT MLS,DCDC2150262,N,Y,38.9165048,-77.0125557
MLS Listing,,Townhouse,7526 9th St NW,Washington,DC,20012,449900,3,1.5,Brightwood,1820,2262,1951,2,247,,Active,,,https://www.redfin.com/DC/Washington/7526-9th-St-NW-20012/home/10037286,BRIGHT MLS,DCDC2150700,N,Y,38.9821634,-77.0256191
MLS Listing,,Condo/Co-op,922 24th St NW #414,Washington,DC,20037,245000,0,1.0,Foggy Bottom,464,,1962,2,528,662,Active,,,https://www.redfin.com/DC/Washington/922-24th-St-NW-20037/unit-414/home/9044528,BRIGHT MLS,DCDC2150554,N,Y,38.9015335,-77.0516798
MLS Listing,,Condo/Co-op,4402 1st Pl NE #13,Washington,DC,20011,389900,2,1.0,Brookland,700,,1955,2,557,364,Active,,,https://www.redfin.com/DC/Washington/4402-1st-Pl-NE-20011/unit-13/home/10349975,BRIGHT MLS,DCDC2149270,N,Y,38.9437118,-77.0068575
MLS Listing,,Townhouse,173 Todd Pl NE,Washington,DC,20002,800000,4,2.5,Eckington,2006,1523,1925,2,399,,Active,,,https://www.redfin.com/DC/Washington/173-Todd-Pl-NE-20002/home/10073201,BRIGHT MLS,DCDC2148528,N,Y,38.9160827,-77.0041874
MLS Listing,,Townhouse,1921 6th St NW,Washington,DC,20001,975000,3,3.5,Ledroit Park,1510,1453,1905,2,646,,Active,July-20-2024 12:00 PM,July-20-2024 02:00 PM,https://www.redfin.com/DC/Washington/1921-6th-St-NW-20001/home/10046053,BRIGHT MLS,DCDC2149846,N,Y,38.9162938,-77.0199091
MLS Listing,,Townhouse,120 Bryant St NW,Washington,DC,20001,1575000,5,3.5,Ledroit Park,3104,2236,1909,2,507,,Active,July-21-2024 01:00 PM,July-21-2024 04:00 PM,https://www.redfin.com/DC/Washington/120-Bryant-St-NW-20001/home/10050302,BRIGHT MLS,DCDC2149326,N,Y,38.9209984,-77.0129156
MLS Listing,,Townhouse,48 New York Ave NW Unit A,Washington,DC,20001,975000,4,3.5,Old City 2,2145,,1916,2,455,350,Active,,,https://www.redfin.com/DC/Washington/48-New-York-Ave-NW-20001/unit-A/home/167079882,BRIGHT MLS,DCDC2148878,N,Y,38.9065308,-77.0108149
MLS Listing,,Condo/Co-op,58 T St NW #1,Washington,DC,20001,474999,2,1.0,Eckington,812,,1909,2,585,175,Active,July-20-2024 11:00 AM,July-20-2024 01:00 PM,https://www.redfin.com/DC/Washington/58-T-St-NW-20001/unit-1/home/10048080,BRIGHT MLS,DCDC2150666,N,Y,38.9153669,-77.0110036
MLS Listing,,Townhouse,5303 7th St NW,Washington,DC,20011,625000,3,1.5,Petworth,1534,1728,1924,2,407,,Active,,,https://www.redfin.com/DC/Washington/5303-7th-St-NW-20011/home/10056834,BRIGHT MLS,DCDC2150770,N,Y,38.9544462,-77.0219807
MLS Listing,,Single Family Residential,2639 Myrtle Ave NE,Washington,DC,20018,649000,3,1.0,Woodridge,1815,9482,1913,2,358,,Active,,,https://www.redfin.com/DC/Washington/2639-Myrtle-Ave-NE-20018/home/10106168,BRIGHT MLS,DCDC2150768,N,Y,38.9303988,-76.9683791
MLS Listing,,Single Family Residential,2628 Myrtle Ave NE,Washington,DC,20018,599900,3,1.5,Woodridge,2344,8522,1910,2,256,,Active,,,https://www.redfin.com/DC/Washington/2628-Myrtle-Ave-NE-20018/home/10105834,BRIGHT MLS,DCDC2150766,N,Y,38.9306173,-76.9688394
MLS Listing,,Condo/Co-op,460 New York Ave NW #507,Washington,DC,20001,745000,2,2.0,Old City 2,1134,,2015,2,657,1153,Pre On-Market,July-20-2024 01:00 PM,July-20-2024 03:00 PM,https://www.redfin.com/DC/Washington/460-New-York-Ave-NW-20001/unit-507/home/61478537,BRIGHT MLS,DCDC2150746,N,Y,38.9038965,-77.0180781
MLS Listing,,Condo/Co-op,2001 I St NE #5,Washington,DC,20002,424900,2,2.0,CARVER LANGSTON,918,,2023,2,463,251,Active,,,https://www.redfin.com/DC/Washington/2001-I-St-NE-20002/unit-5/home/186200129,BRIGHT MLS,DCDC2150748,N,Y,38.9022969,-76.9749495
MLS Listing,,Condo/Co-op,2209 M St NE #2,Washington,DC,20002,249900,1,1.0,CARVER LANGSTON,,,2023,2,,131,Active,,,https://www.redfin.com/DC/Washington/2209-M-St-NE-20002/unit-2/home/188753008,BRIGHT MLS,DCDC2150744,N,Y,38.905472,-76.9726728
MLS Listing,,Condo/Co-op,1300 Childress St NE #2,Washington,DC,20002,360000,2,1.0,Trinidad,762,,1937,2,472,425,Pre On-Market,,,https://www.redfin.com/DC/Washington/1300-Childress-St-NE-20002/unit-2/home/12530247,BRIGHT MLS,DCDC2150726,N,Y,38.906565,-76.983632
MLS Listing,,Condo/Co-op,38 Florida Ave NW Unit C,Washington,DC,20001,465000,1,1.0,Old City 2,1855,,1900,2,251,287,Active,,,https://www.redfin.com/DC/Washington/38-Florida-Ave-NW-20001/unit-C/home/186029719,BRIGHT MLS,DCDC2150738,N,Y,38.9114754,-77.0111835
MLS Listing,,Condo/Co-op,38 Florida Ave NW Unit B,Washington,DC,20001,439000,1,1.0,Old City 2,1855,,1900,2,237,287,Active,,,https://www.redfin.com/DC/Washington/38-Florida-Ave-NW-20001/unit-B/home/186029644,BRIGHT MLS,DCDC2150736,N,Y,38.9114754,-77.0111835
MLS Listing,,Condo/Co-op,2111 Wisconsin Ave NW #119,Washington,DC,20007,385000,1,1.0,Observatory Circle,677,,1988,2,569,902,Active,July-21-2024 02:00 PM,July-21-2024 04:00 PM,https://www.redfin.com/DC/Washington/2111-Wisconsin-Ave-NW-20007/unit-119/home/9932854,BRIGHT MLS,DCDC2150730,N,Y,38.9180098,-77.0687883
MLS Listing,,Single Family Residential,3126 Woodley Rd NW,Washington,DC,20008,3295000,5,4.5,Woodley,4300,6818,1923,2,766,,Active,July-21-2024 01:00 PM,July-21-2024 03:00 PM,https://www.redfin.com/DC/Washington/3126-Woodley-Rd-NW-20008/home/9986102,BRIGHT MLS,DCDC2150668,N,Y,38.9300769,-77.062675
MLS Listing,,Condo/Co-op,2039 New Hampshire Ave NW #502,Washington,DC,20009,800000,2,2.0,Old City 2,,,1909,2,,1547,Pre On-Market,,,https://www.redfin.com/DC/Washington/2039-New-Hampshire-Ave-NW-20009/unit-502/home/28721744,BRIGHT MLS,DCDC2140678,N,Y,38.9177379,-77.0353957
MLS Listing,,Condo/Co-op,1310 Vermont Ave NW #4,Washington,DC,20005,1299000,2,2.0,Old City 2,1285,,2020,2,1011,399,Active,,,https://www.redfin.com/DC/Washington/1310-Vermont-Ave-NW-20005/unit-4/home/172265025,BRIGHT MLS,DCDC2149942,N,Y,38.9079812,-77.0310113
MLS Listing,,Townhouse,901 F St NE,Washington,DC,20002,825000,3,1.5,Old City 1,1296,570,1922,2,637,,Active,July-18-2024 05:00 PM,July-18-2024 06:30 PM,https://www.redfin.com/DC/Washington/901-F-St-NE-20002/home/9904134,BRIGHT MLS,DCDC2149336,N,Y,38.8971358,-76.9935349
MLS Listing,,Single Family Residential,3102 S Dakota Ave NE,Washington,DC,20018,999995,4,3.5,Woodridge,2181,7921,1936,2,459,,Active,July-21-2024 12:00 PM,July-21-2024 03:00 PM,https://www.redfin.com/DC/Washington/3102-South-Dakota-Ave-NE-20018/home/10104762,BRIGHT MLS,DCDC2148538,N,Y,38.9300181,-76.970616
MLS Listing,,Townhouse,1725 Riggs Pl NW,Washington,DC,20009,3895000,4,4.5,Old City 2,3901,1674,1912,2,998,,Pre On-Market,,,https://www.redfin.com/DC/Washington/1725-Riggs-Pl-NW-20009/home/9859335,BRIGHT MLS,DCDC2150434,N,Y,38.9135528,-77.0409584
MLS Listing,,Single Family Residential,7509 17th St NW,Washington,DC,20012,1100000,3,3.5,Colonial Village,2838,8929,1962,2,388,,Active,,,https://www.redfin.com/DC/Washington/7509-17th-St-NW-20012/home/10019848,BRIGHT MLS,DCDC2147326,N,Y,38.9814136,-77.0374437
MLS Listing,,Multi-Family (2-4 Unit),1728 N Capitol St NW,Washington,DC,20002,1500000,,,Eckington,2208,1133,,2,679,,Active,,,https://www.redfin.com/DC/Washington/1728-N-Capitol-St-NW-20002/home/191603309,BRIGHT MLS,DCDC2150698,N,Y,38.9135733,-77.0094177
MLS Listing,,Condo/Co-op,1103 Fern St NW #303,Washington,DC,20012,579000,2,2.5,Shepherd Park,1068,,2022,2,542,115,Active,July-20-2024 01:00 PM,July-20-2024 03:00 PM,https://www.redfin.com/DC/Washington/1103-Fern-St-NW-20012/unit-303/home/182177235,BRIGHT MLS,DCDC2150696,N,Y,38.9782491,-77.0267828
MLS Listing,,Condo/Co-op,1214 Meigs Pl NE #1,Washington,DC,20011,569900,2,2.0,TRINIDAD,1585,,,2,360,192,Active,July-21-2024 11:00 AM,July-21-2024 01:00 PM,https://www.redfin.com/DC/Washington/1214-Meigs-Pl-NE-20002/unit-1/home/191602592,BRIGHT MLS,DCDC2150682,N,Y,38.9082044,-76.9854592
MLS Listing,,Condo/Co-op,718 Park Rd NW #3,Washington,DC,20010,399900,1,1.0,Columbia Heights,654,,1950,2,611,396,Active,,,https://www.redfin.com/DC/Washington/718-Park-Rd-NW-20010/unit-3/home/21644003,BRIGHT MLS,DCDC2150670,N,Y,38.932768,-77.0245249
MLS Listing,,Condo/Co-op,1214 Meigs Pl NE #3,Washington,DC,20011,729900,3,3.0,TRINIDAD,1589,,,2,459,192,Active,July-21-2024 11:00 AM,July-21-2024 01:00 PM,https://www.redfin.com/DC/Washington/1214-Meigs-Pl-NE-20002/unit-3/home/191601990,BRIGHT MLS,DCDC2150054,N,Y,38.9082044,-76.9854592
MLS Listing,,Single Family Residential,410 Aspen St NW,Washington,DC,20012,1050000,5,3.0,Brightwood,2044,8250,1913,2,514,,Pre On-Market,,,https://www.redfin.com/DC/Washington/410-Aspen-St-NW-20012/home/10062306,BRIGHT MLS,DCDC2150490,N,Y,38.9721133,-77.0191338
MLS Listing,,Condo/Co-op,4201 Cathedral Ave NW Unit 616E,Washington,DC,20016,265000,1,1.0,Wesley Heights,902,,1960,2,294,1022,Active,,,https://www.redfin.com/DC/Washington/4201-Cathedral-Ave-NW-20016/unit-616E/home/9951797,BRIGHT MLS,DCDC2150652,N,Y,38.9306264,-77.0829866
MLS Listing,,Townhouse,815 10th St NE,Washington,DC,20002,1299000,4,3.5,Old City 1,1794,1854,1912,2,724,,Active,,,https://www.redfin.com/DC/Washington/815-10th-St-NE-20002/home/9906025,BRIGHT MLS,DCDC2150648,N,Y,38.9007896,-76.9923987
MLS Listing,,Townhouse,517 14th St NE,Washington,DC,20002,992500,4,3.0,Old City 1,1806,1064,1900,2,550,,Active,July-20-2024 12:00 PM,July-20-2024 02:00 PM,https://www.redfin.com/DC/Washington/517-14th-St-NE-20002/home/9915994,BRIGHT MLS,DCDC2148226,N,Y,38.8967142,-76.9852676
MLS Listing,,Townhouse,831 Sycamore Dr SE Lot 928,Washington,DC,20032,666141,3,3.5,CONGRESS HEIGHTS,,,,2,,150,Active,July-20-2024 01:00 PM,July-20-2024 03:00 PM,https://www.redfin.com/DC/Washington/831-Sycamore-Dr-SE-20032/unit-928/home/189081823,BRIGHT MLS,DCDC2150640,N,Y,38.8453464,-76.9936551
MLS Listing,,Townhouse,1002 15th St SE,Washington,DC,20003,589000,3,1.5,Old City 1,1684,1542,1938,2,350,,Pre On-Market,,,https://www.redfin.com/DC/Washington/1002-15th-St-SE-20003/home/9919627,BRIGHT MLS,DCDC2150638,N,Y,38.8782217,-76.9833992
MLS Listing,,Vacant Land,4443 A St SE,Washington,DC,20019,135000,,,Fort Dupont Park,,3300,,2,,,Active,,,https://www.redfin.com/DC/Washington/4443-A-St-SE-20019/home/143897385,BRIGHT MLS,DCDC2150534,N,Y,38.8881864,-76.9375442
MLS Listing,,Townhouse,1019 47th St NE,Washington,DC,20019,369420,2,1.0,Deanwood,1200,2250,1947,2,308,,Active,,,https://www.redfin.com/DC/Washington/1019-47th-St-NE-20019/home/10124985,BRIGHT MLS,DCDC2150624,N,Y,38.9043476,-76.9352175
MLS Listing,,Condo/Co-op,424 Missouri Ave NW #1,Washington,DC,20011,850000,3,2.5,Petworth,2000,,2023,2,425,375,Active,,,https://www.redfin.com/DC/Washington/424-Missouri-Ave-NW-20011/unit-1/home/188157385,BRIGHT MLS,DCDC2150618,N,Y,38.9578931,-77.0193901
MLS Listing,,Condo/Co-op,424 Missouri Ave NW #4,Washington,DC,20011,950000,3,3.0,Petworth,2200,,2023,2,432,375,Active,,,https://www.redfin.com/DC/Washington/424-Missouri-Ave-NW-20011/unit-4/home/188100592,BRIGHT MLS,DCDC2150612,N,Y,38.9578931,-77.0193901
MLS Listing,,Condo/Co-op,424 Missouri Ave NW #3,Washington,DC,20011,950000,3,3.0,Petworth,2200,,2023,2,432,375,Active,,,https://www.redfin.com/DC/Washington/424-Missouri-Ave-NW-20011/unit-3/home/188133276,BRIGHT MLS,DCDC2150614,N,Y,38.9578931,-77.0193901
MLS Listing,,Condo/Co-op,424 Missouri Ave NW #2,Washington,DC,20011,850000,3,2.5,Petworth,2000,,2023,2,425,375,Active,,,https://www.redfin.com/DC/Washington/424-Missouri-Ave-NW-20011/unit-2/home/188134123,BRIGHT MLS,DCDC2150616,N,Y,38.9578931,-77.0193901
MLS Listing,,Townhouse,631 11th St NE,Washington,DC,20002,499000,1,1.0,Old City 1,744,756,1920,2,671,,Pre On-Market,July-20-2024 02:00 PM,July-20-2024 04:00 PM,https://www.redfin.com/DC/Washington/631-11th-St-NE-20002/home/9908065,BRIGHT MLS,DCDC2150158,N,Y,38.8982079,-76.9913166
MLS Listing,,Condo/Co-op,2130 N N St NW #503,Washington,DC,20037,235000,0,1.0,Central,447,,1947,2,526,433,Active,,,https://www.redfin.com/DC/Washington/2130-N-St-NW-20037/unit-503/home/9053677,BRIGHT MLS,DCDC2150420,N,Y,38.9070037,-77.0481302
MLS Listing,,Single Family Residential,4518 Davenport St NW,Washington,DC,20016,1825000,3,3.5,American University,2564,6236,1932,2,712,,Active,July-20-2024 12:00 PM,July-20-2024 02:00 PM,https://www.redfin.com/DC/Washington/4518-Davenport-St-NW-20016/home/9948684,BRIGHT MLS,DCDC2146906,N,Y,38.95188,-77.0899437
MLS Listing,,Townhouse,2413-1/2 20th St NW #3,Washington,DC,20009,775000,2,2.0,Kalorama,918,,1995,2,844,548,Pre On-Market,July-21-2024 01:00 PM,July-21-2024 03:00 PM,https://www.redfin.com/DC/Washington/2413-1-2-20th-St-NW-20009/unit-3/home/191596315,BRIGHT MLS,DCDC2150452,N,Y,38.9214942,-77.0466967
MLS Listing,,Townhouse,721 Capitol Square Pl SW,Washington,DC,20024,1100000,3,3.0,R. L. A. SW,2043,1075,2001,2,538,191,Active,July-21-2024 01:00 PM,July-21-2024 03:00 PM,https://www.redfin.com/DC/Washington/721-Capitol-Square-Pl-SW-20024/home/10176933,BRIGHT MLS,DCDC2147068,N,Y,38.8820679,-77.0228367
MLS Listing,,Condo/Co-op,2360 Champlain St NW Unit 4.4,Washington,DC,20009,550000,1,1.0,Mount Pleasant,728,,2014,3,755,317,Active,July-21-2024 01:00 PM,July-21-2024 03:00 PM,https://www.redfin.com/DC/Washington/2360-Champlain-St-NW-20009/unit-44/home/52203963,BRIGHT MLS,DCDC2150310,N,Y,38.9215283,-77.0415818
MLS Listing,,Condo/Co-op,2424 17th St NW #208,Washington,DC,20009,489900,2,2.0,Mount Pleasant,620,,1910,3,790,449,Active,,,https://www.redfin.com/DC/Washington/2424-17th-St-NW-20009/unit-208/home/109256085,BRIGHT MLS,DCDC2150348,N,Y,38.922338,-77.0393083
MLS Listing,,Condo/Co-op,1111 M St NW #6,Washington,DC,20005,580000,1,1.0,Old City 2,728,,1863,3,797,306,Active,July-20-2024 01:00 PM,July-20-2024 03:00 PM,https://www.redfin.com/DC/Washington/1111-M-St-NW-20005/unit-6/home/21647989,BRIGHT MLS,DCDC2137948,N,Y,38.9058197,-77.0277613
MLS Listing,,Townhouse,2315 13th Pl NE,Washington,DC,20018,675000,3,2.0,Brentwood,1559,2432,1941,3,433,,Active,July-21-2024 03:30 PM,July-21-2024 05:30 PM,https://www.redfin.com/DC/Washington/2315-13th-Pl-NE-20018/home/10091368,BRIGHT MLS,DCDC2149802,N,Y,38.9204627,-76.9866614
MLS Listing,,Condo/Co-op,3841 Newark St NW Unit C453,Washington,DC,20016,539000,2,1.0,Cleveland Park,1037,,1942,3,520,545,Active,July-20-2024 01:00 PM,July-20-2024 03:00 PM,https://www.redfin.com/DC/Washington/3841-Newark-St-NW-20016/unit-C453/home/9967148,BRIGHT MLS,DCDC2150206,N,Y,38.935844,-77.0757541
MLS Listing,,Condo/Co-op,2514 41st St NW #2,Washington,DC,20007,450000,2,1.0,Glover Park,861,,1926,3,523,515,Active,,,https://www.redfin.com/DC/Washington/2514-41st-St-NW-20007/unit-2/home/11747325,BRIGHT MLS,DCDC2145312,N,Y,38.9232416,-77.0809543
MLS Listing,,Townhouse,4339 C St SE,Washington,DC,20019,340000,2,1.5,Fort Dupont Park,1211,2376,1950,3,281,,Pre On-Market,,,https://www.redfin.com/DC/Washington/4339-C-St-SE-20019/home/10141244,BRIGHT MLS,DCDC2150558,N,Y,38.8863249,-76.9436462
MLS Listing,,Townhouse,1442 Spring Rd NW,Washington,DC,20010,1249999,4,3.5,Columbia Heights,2040,1520,1923,3,613,,Active,,,https://www.redfin.com/DC/Washington/1442-Spring-Rd-NW-20010/home/10015402,BRIGHT MLS,DCDC2149954,N,Y,38.9371806,-77.0349925
MLS Listing,,Multi-Family (2-4 Unit),1613 18th St SE,Washington,DC,20020,650000,,,Anacostia,3200,2550,1938,3,203,,Active,,,https://www.redfin.com/DC/Washington/1613-18th-St-SE-20020/home/10148574,BRIGHT MLS,DCDC2150522,N,Y,38.8699973,-76.9792639
MLS Listing,,Townhouse,2248 Shannon Pl SE,Washington,DC,20020,519000,3,2.0,Anacostia,1080,1392,1927,3,481,,Active,,,https://www.redfin.com/DC/Washington/2248-Shannon-Pl-SE-20020/home/10158509,BRIGHT MLS,DCDC2149530,N,Y,38.8640389,-76.9911163
MLS Listing,,Condo/Co-op,38 Florida Ave NW Unit A,Washington,DC,20001,439000,2,1.0,Old City 2,1855,820,1900,3,237,287,Active,,,https://www.redfin.com/DC/Washington/38-Florida-Ave-NW-20001/unit-A/home/186029630,BRIGHT MLS,DCDC2150548,N,Y,38.9114754,-77.0111835
MLS Listing,,Condo/Co-op,900 11th St SE #201,Washington,DC,20003,769900,2,2.0,Old City 1,1200,,2017,3,642,630,Active,July-21-2024 01:00 PM,July-21-2024 03:00 PM,https://www.redfin.com/DC/Washington/900-11th-St-SE-20003/unit-201/home/145237793,BRIGHT MLS,DCDC2146010,N,Y,38.8789569,-76.9913448
MLS Listing,,Townhouse,1430 Bangor St SE,Washington,DC,20020,384000,3,1.5,Anacostia,1248,2585,1944,3,308,,Active,July-21-2024 12:00 PM,July-21-2024 02:00 PM,https://www.redfin.com/DC/Washington/1430-Bangor-St-SE-20020/home/10159946,BRIGHT MLS,DCDC2150502,N,Y,38.8607108,-76.9868864
MLS Listing,,Single Family Residential,1326 Farragut St NW,Washington,DC,20011,1625000,5,4.5,16th Street Heights,4543,5662,1920,3,358,,Pre On-Market,,,https://www.redfin.com/DC/Washington/1326-Farragut-St-NW-20011/home/10024974,BRIGHT MLS,DCDC2150388,N,Y,38.9505893,-77.0321901
MLS Listing,,Condo/Co-op,4000 Tunlaw Rd NW #1110,Washington,DC,20007,236000,1,1.0,Glover Park,751,,1961,3,314,850,Active,,,https://www.redfin.com/DC/Washington/4000-Tunlaw-Rd-NW-20007/unit-1110/home/9959768,BRIGHT MLS,DCDC2150328,N,Y,38.9252674,-77.0804147
MLS Listing,,Townhouse,2527 3rd St NE,Washington,DC,20002,465000,3,1.0,Brookland,1008,1906,1950,3,461,,Active,,,https://www.redfin.com/DC/Washington/2527-3rd-St-NE-20002/home/10074162,BRIGHT MLS,DCDC2149106,N,Y,38.9229795,-77.0018477
MLS Listing,,Townhouse,1710 2nd St NW,Washington,DC,20001,899999,3,1.5,Eckington,2379,1312,1912,3,378,,Pre On-Market,,,https://www.redfin.com/DC/Washington/1710-2nd-St-NW-20001/home/10046658,BRIGHT MLS,DCDC2150400,N,Y,38.9135859,-77.0143341
MLS Listing,,Multi-Family (2-4 Unit),121 35th St NE,Washington,DC,20019,699000,,,Deanwood,2720,3662,1942,3,257,,Active,,,https://www.redfin.com/DC/Washington/121-35th-St-NE-20019/home/10118163,BRIGHT MLS,DCDC2150470,N,Y,38.8912486,-76.954207
MLS Listing,,Condo/Co-op,1701 16th St NW #229,Washington,DC,20009,389000,1,1.0,DUPONT CIRCLE,,,1920,3,,482,Active,July-20-2024 01:00 PM,July-20-2024 03:30 PM,https://www.redfin.com/DC/Washington/1701-16th-St-NW-20009/unit-229/home/12542329,BRIGHT MLS,DCDC2150148,N,Y,38.912884,-77.0358918
MLS Listing,,Multi-Family (2-4 Unit),807 48th Pl NE,Washington,DC,20019,615000,,,Deanwood,1995,1677,1933,3,308,,Active,,,https://www.redfin.com/DC/Washington/807-48th-Pl-NE-20019/home/10124381,BRIGHT MLS,DCDC2150332,N,Y,38.9000129,-76.9324987
MLS Listing,,Condo/Co-op,950 25th St NW Unit 525N,Washington,DC,20037,205000,0,1.0,Foggy Bottom,450,,1966,3,456,888,Active,,,https://www.redfin.com/DC/Washington/950-25th-St-NW-20037/unit-525N/home/17878408,BRIGHT MLS,DCDC2150354,N,Y,38.9021042,-77.0536336
MLS Listing,,Condo/Co-op,2305 Nicholson SE #104,Washington,DC,20020,245000,1,1.0,Anacostia,523,,2024,3,468,145,Active,July-20-2024 12:00 PM,July-20-2024 02:00 PM,https://www.redfin.com/DC/Washington/2305-Nicholson-St-SE-20020/unit-104/home/191583656,BRIGHT MLS,DCDC2149658,N,Y,38.873066,-76.9732959
MLS Listing,,Condo/Co-op,940 25th St NW Unit 316-S,Washington,DC,20037,295000,1,1.0,Foggy Bottom,700,,1957,3,421,1300,Active,,,https://www.redfin.com/DC/Washington/940-25th-St-NW-20037/unit-316S/home/143588686,BRIGHT MLS,DCDC2150352,N,Y,38.901712,-77.05372
MLS Listing,,Townhouse,3223 N N St NW,Washington,DC,20007,1500000,4,3.5,Georgetown,2558,2001,1900,3,586,,Active,,,https://www.redfin.com/DC/Washington/3223-N-St-NW-20007/home/9926580,BRIGHT MLS,DCDC2150402,N,Y,38.9070635,-77.0639904
MLS Listing,,Single Family Residential,5406 Illinois Ave NW,Washington,DC,20011,549900,6,2.0,Petworth,2633,2316,1921,3,209,,Active,,,https://www.redfin.com/DC/Washington/5406-Illinois-Ave-NW-20011/home/10039725,BRIGHT MLS,DCDC2150230,N,Y,38.9556225,-77.0273669
MLS Listing,,Townhouse,5027 7th Pl NW,Washington,DC,20011,600000,4,1.0,Petworth,1400,1620,1925,3,429,,Active,,,https://www.redfin.com/DC/Washington/5027-7th-Pl-NW-20011/home/10051813,BRIGHT MLS,DCDC2150356,N,Y,38.9516986,-77.0227655
MLS Listing,,Single Family Residential,738 Longfellow St NW #104,Washington,DC,20011,320000,2,1.0,Petworth,661,,1900,4,484,460,Active,,,https://www.redfin.com/DC/Washington/738-Longfellow-St-NW-20011/unit-104/home/12530569,BRIGHT MLS,DCDC2147420,N,Y,38.9571059,-77.0236114
MLS Listing,,Townhouse,1519 S S St NW,Washington,DC,20009,1490000,3,4.0,Old City 2,1952,2146,1890,4,763,,Active,,,https://www.redfin.com/DC/Washington/1519-S-St-NW-20009/home/9867865,BRIGHT MLS,DCDC2149572,N,Y,38.9142622,-77.0353861
MLS Listing,,Condo/Co-op,1 Scott Cir NW #419,Washington,DC,20036,250000,1,1.0,Old City 2,596,,1891,4,419,605,Active,,,https://www.redfin.com/DC/Washington/1-Scott-Cir-NW-20036/unit-419/home/10175933,BRIGHT MLS,DCDC2150360,N,Y,38.9077434,-77.0360728
MLS Listing,,Townhouse,2023 O St NW,Washington,DC,20036,3393777,6,4.5,Central,3347,1596,1900,4,1014,,Active,July-21-2024 02:00 PM,July-21-2024 04:00 PM,https://www.redfin.com/DC/Washington/2023-O-St-NW-20036/home/9056136,BRIGHT MLS,DCDC2138960,N,Y,38.9087471,-77.0461133
MLS Listing,,Townhouse,5038 Sargent Rd NE,Washington,DC,20017,655000,4,2.5,Riggs Park,2265,2335,1947,4,289,,Pre On-Market,,,https://www.redfin.com/DC/Washington/5038-Sargent-Rd-NE-20017/home/10089553,BRIGHT MLS,DCDC2145762,N,Y,38.9516867,-76.9898148
MLS Listing,,Townhouse,3319 Sherman Ave NW #1,Washington,DC,20010,814900,3,2.5,Columbia Heights,1536,,1912,4,531,288,Pre On-Market,,,https://www.redfin.com/DC/Washington/3319-Sherman-Ave-NW-20010/unit-1/home/170470152,BRIGHT MLS,DCDC2150160,N,Y,38.9313592,-77.0263108
MLS Listing,,Condo/Co-op,412 D St SE Unit A,Washington,DC,20003,1000000,2,2.5,CAPITOL HILL,1346,,,4,743,334,Active,July-20-2024 12:00 PM,July-20-2024 02:00 PM,https://www.redfin.com/DC/Washington/412-D-St-SE-20003/unit-A/home/191580493,BRIGHT MLS,DCDC2149962,N,Y,38.8844709,-76.999966
MLS Listing,,Condo/Co-op,1727 R St NW #402,Washington,DC,20009,559900,1,1.0,Old City 2,711,,1908,4,787,580,Active,July-20-2024 01:00 PM,July-20-2024 03:00 PM,https://www.redfin.com/DC/Washington/1727-R-St-NW-20009/unit-402/home/9860310,BRIGHT MLS,DCDC2144270,N,Y,38.9128084,-77.0395923
MLS Listing,,Condo/Co-op,3619 Georgia Ave NW #101,Washington,DC,20010,525000,2,1.5,PARK VIEW,1210,,2022,4,434,464,Active,,,https://www.redfin.com/DC/Washington/3619-Georgia-Ave-NW-20010/unit-101/home/175713484,BRIGHT MLS,DCDC2142124,N,Y,38.9351,-77.0238498
MLS Listing,,Townhouse,1251 Emerson St NE,Washington,DC,20017,399999,3,1.5,Riggs Park,1504,2125,1950,5,266,,Active,,,https://www.redfin.com/DC/Washington/1251-Emerson-St-NE-20017/home/10093045,BRIGHT MLS,DCDC2150308,N,Y,38.9500728,-76.987651
MLS Listing,,Condo/Co-op,2475 Virginia Ave NW #620,Washington,DC,20037,175000,0,1.0,FOGGY BOTTOM,624,,1955,5,280,946,Active,,,https://www.redfin.com/DC/Washington/2475-Virginia-Ave-NW-20037/unit-620/home/17365272,BRIGHT MLS,DCDC2149540,N,Y,38.89905,-77.052542
MLS Listing,,Townhouse,1510 Trinidad Ave NE,Washington,DC,20002,730000,3,2.0,Trinidad,1487,1468,1927,5,491,,Active,,,https://www.redfin.com/DC/Washington/1510-Trinidad-Ave-NE-20002/home/10175092,BRIGHT MLS,DCDC2149370,N,Y,38.905545,-76.9848877
MLS Listing,,Townhouse,824 51st St SE,Washington,DC,20019,270000,2,2.0,Marshall Heights,1144,2062,1941,5,236,,Pre On-Market,,,https://www.redfin.com/DC/Washington/824-51st-St-SE-20019/home/10135068,BRIGHT MLS,DCDC2149012,N,Y,38.8778187,-76.929853
MLS Listing,,Vacant Land,5044 NE Meade St NE,Washington,DC,20019,165000,,,Deanwood,,6347,,5,,,Active,,,https://www.redfin.com/DC/Washington/5044-Meade-St-NE-20019/home/166675421,BRIGHT MLS,DCDC2150318,N,Y,38.9065076,-76.9276701
MLS Listing,,Vacant Land,5042 NE Meade St NE,Washington,DC,20019,165000,,,Deanwood,,6773,,5,,,Active,,,https://www.redfin.com/DC/Washington/5042-Meade-St-NE-20019/home/166662898,BRIGHT MLS,DCDC2150316,N,Y,38.9065251,-76.9279571
MLS Listing,,Single Family Residential,4523 Garrison St NW,Washington,DC,20016,3099999,7,6.0,American University,5375,6280,1936,5,577,,Active,,,https://www.redfin.com/DC/Washington/4523-Garrison-St-NW-20016/home/9948938,BRIGHT MLS,DCDC2150242,N,Y,38.9561254,-77.089675
MLS Listing,,Townhouse,215 Jefferson St NW,Washington,DC,20011,778000,4,3.5,Petworth,2328,1911,1935,5,334,,Active,,,https://www.redfin.com/DC/Washington/215-Jefferson-St-NW-20011/home/10066237,BRIGHT MLS,DCDC2150176,N,Y,38.9557432,-77.0142563
MLS Listing,,Condo/Co-op,4116 Ames St NE #101,Washington,DC,20019,185000,2,1.0,Deanwood,665,,1963,5,278,295,Active,,,https://www.redfin.com/DC/Washington/4116-Ames-St-NE-20019/unit-101/home/10313932,BRIGHT MLS,DCDC2149360,N,Y,38.891178,-76.94346
MLS Listing,,Parking,1545 18th St NW Unit P26,Washington,DC,20036,50000,0,,Old City 2,6,,1960,5,8333,34,Active,,,https://www.redfin.com/DC/Washington/1545-18th-St-NW-20036/unit-P26/home/9862134,BRIGHT MLS,DCDC2150304,N,Y,38.910903,-77.0411095
MLS Listing,,Condo/Co-op,1545 18th St NW #218,Washington,DC,20036,419900,1,1.0,Old City 2,750,,1960,5,560,899,Active,,,https://www.redfin.com/DC/Washington/1545-18th-St-NW-20036/unit-218/home/9861707,BRIGHT MLS,DCDC2147140,N,Y,38.910903,-77.0411095
MLS Listing,,Single Family Residential,2833 Northampton St NW,Washington,DC,20015,1295000,3,3.0,Chevy Chase,2195,6786,1941,5,590,,Active,July-21-2024 01:00 PM,July-21-2024 03:00 PM,https://www.redfin.com/DC/Washington/2833-Northampton-St-NW-20015/home/9993898,BRIGHT MLS,DCDC2144948,N,Y,38.966597,-77.0583465
MLS Listing,,Condo/Co-op,2425 L St NW #324,Washington,DC,20037,825000,1,1.0,Central,816,,2006,5,1011,748,Active,,,https://www.redfin.com/DC/Washington/2425-L-St-NW-20037/unit-324/home/11745782,BRIGHT MLS,DCDC2149944,N,Y,38.9042605,-77.0523553
MLS Listing,,Condo/Co-op,916 G St NW #706,Washington,DC,20001,565000,1,1.0,Central,943,,2002,5,599,618,Active,July-20-2024 11:00 AM,July-20-2024 01:00 PM,https://www.redfin.com/DC/Washington/916-G-St-NW-20001/unit-706/home/10189790,BRIGHT MLS,DCDC2147732,N,Y,38.8980051,-77.024916
MLS Listing,,Condo/Co-op,3601 Connecticut Ave NW #309,Washington,DC,20008,475000,1,1.0,Forest Hills,1100,,1928,5,432,1067,Active,,,https://www.redfin.com/DC/Washington/3601-Connecticut-Ave-NW-20008/unit-309/home/16902735,BRIGHT MLS,DCDC2147516,N,Y,38.9379083,-77.0586498
MLS Listing,,Townhouse,806 Constitution Ave NE,Washington,DC,20002,2495000,5,3.5,Old City 1,3148,2352,2001,5,793,,Active,July-21-2024 02:00 PM,July-21-2024 04:00 PM,https://www.redfin.com/DC/Washington/806-Constitution-Ave-NE-20002/home/10177424,BRIGHT MLS,DCDC2137098,N,Y,38.892259,-76.994561
MLS Listing,,Multi-Family (2-4 Unit),1231 Queen St NE,Washington,DC,20002,775000,,,Trinidad,3634,2703,1936,6,213,,Active,,,https://www.redfin.com/DC/Washington/1231-Queen-St-NE-20002/home/10095081,BRIGHT MLS,DCDC2150280,N,Y,38.906451,-76.9861665
MLS Listing,,Townhouse,292 M St SW #292,Washington,DC,20024,685000,2,2.5,R. L. A. SW,1784,,1967,6,384,1720,Active,,,https://www.redfin.com/DC/Washington/292-M-St-SW-20024/unit-292/home/9886870,BRIGHT MLS,DCDC2149206,N,Y,38.8754135,-77.0161493
MLS Listing,,Multi-Family (2-4 Unit),3325 Ely SE,Washington,DC,20019,600000,8,4.0,Fort Dupont Park,3796,5850,1945,6,158,,Active,,,https://www.redfin.com/DC/Washington/3325-Ely-Pl-SE-20019/home/191559406,BRIGHT MLS,DCDC2149652,N,Y,38.8834638,-76.9588255
MLS Listing,,Townhouse,5532 C St SE,Washington,DC,20019,470000,3,2.5,Marshall Heights,1425,1910,1947,6,330,,Active,,,https://www.redfin.com/DC/Washington/5532-C-St-SE-20019/home/10133509,BRIGHT MLS,DCDC2146160,N,Y,38.8842246,-76.9211817
MLS Listing,,Single Family Residential,2927 South Dakota NE,Washington,DC,20018,950000,4,3.0,Woodridge,2662,8000,1915,6,357,,Active,July-21-2024 01:00 PM,July-21-2024 03:00 PM,https://www.redfin.com/DC/Washington/2927-South-Dakota-Ave-NE-20018/home/10108669,BRIGHT MLS,DCDC2149866,N,Y,38.9284304,-76.9681741
MLS Listing,,Townhouse,2221 N Oak Ct,Arlington,VA,22209,1555999,3,4.0,PALISADES PARK,2456,2854,1995,6,634,258,Active,,,https://www.redfin.com/VA/Arlington/2221-N-Oak-Ct-22209/home/11248743,BRIGHT MLS,VAAR2046186,N,Y,38.9004899,-77.0759336
MLS Listing,,Townhouse,1426 F St NE,Washington,DC,20002,995000,4,2.5,Old City 1,2066,1088,1914,6,482,,Active,,,https://www.redfin.com/DC/Washington/1426-F-St-NE-20002/home/9915841,BRIGHT MLS,DCDC2147650,N,Y,38.8975277,-76.9844801
MLS Listing,,Condo/Co-op,2201 L St NW #612,Washington,DC,20037,279950,0,1.0,Central,475,,1967,6,589,600,Active,,,https://www.redfin.com/DC/Washington/2201-L-St-NW-20037/unit-612/home/9049667,BRIGHT MLS,DCDC2150278,N,Y,38.904037,-77.049292
MLS Listing,,Townhouse,315 I St NE #1,Washington,DC,20002,775000,2,2.5,Old City 1,1415,,2014,6,548,266,Active,July-20-2024 01:00 PM,July-20-2024 03:00 PM,https://www.redfin.com/DC/Washington/315-I-St-NE-20002/unit-1/home/55726247,BRIGHT MLS,DCDC2147992,N,Y,38.9011355,-77.0013303
MLS Listing,,Condo/Co-op,4000 Tunlaw Rd NW #407,Washington,DC,20007,485000,2,2.0,Glover Park,1029,,1960,6,471,1166,Active,,,https://www.redfin.com/DC/Washington/4000-Tunlaw-Rd-NW-20007/unit-407/home/9959344,BRIGHT MLS,DCDC2150172,N,Y,38.9252674,-77.0804147
MLS Listing,,Condo/Co-op,4000 Tunlaw Rd NW #414,Washington,DC,20007,299000,1,1.0,Glover Park,690,,1960,6,433,781,Active,,,https://www.redfin.com/DC/Washington/4000-Tunlaw-Rd-NW-20007/unit-414/home/9959357,BRIGHT MLS,DCDC2150128,N,Y,38.9252674,-77.0804147
MLS Listing,,Townhouse,424 Taylor NW #1,Washington,DC,20011,948000,2,2.5,PETWORTH,1931,,2024,6,491,282,Active,July-20-2024 11:00 AM,July-20-2024 01:00 PM,https://www.redfin.com/DC/Washington/424-Taylor-St-NW-20011/unit-1/home/185490131,BRIGHT MLS,DCDC2146854,N,Y,38.9407994,-77.018364
MLS Listing,,Townhouse,424 Taylor NW #2,Washington,DC,20011,1175000,3,2.5,PETWORTH,1978,,2024,6,594,282,Active,July-20-2024 11:00 AM,July-20-2024 01:00 PM,https://www.redfin.com/DC/Washington/424-Taylor-St-NW-20011/unit-2/home/185490269,BRIGHT MLS,DCDC2146858,N,Y,38.9407994,-77.018364
MLS Listing,,Condo/Co-op,800 4th St SW Unit S615,Washington,DC,20024,295000,0,1.0,R. L. A. SW,463,,1959,6,637,619,Active,,,https://www.redfin.com/DC/Washington/800-4th-St-SW-20024/unit-S615/home/12532324,BRIGHT MLS,DCDC2150268,N,Y,38.880266,-77.0170883
MLS Listing,,Condo/Co-op,604 Longfellow St NW #101,Washington,DC,20011,249900,2,1.0,Petworth,740,,1964,6,338,417,Active,,,https://www.redfin.com/DC/Washington/604-Longfellow-St-NW-20011/unit-101/home/10345598,BRIGHT MLS,DCDC2150248,N,Y,38.9573561,-77.0209614
MLS Listing,,Condo/Co-op,5403 9th St NW #204,Washington,DC,20011,310000,1,1.0,Petworth,573,,1941,6,541,494,Active,,,https://www.redfin.com/DC/Washington/5403-9th-St-NW-20011/unit-204/home/177201825,BRIGHT MLS,DCDC2150220,N,Y,38.9554008,-77.0255269
MLS Listing,,Single Family Residential,516 67th Pl,Capitol Heights,MD,20743,485000,4,3.0,OAKMONT,2000,5700,1910,6,243,,Pre On-Market,,,https://www.redfin.com/MD/Capitol-Heights/516-67th-Pl-20743/home/11014601,BRIGHT MLS,MDPG2119438,N,Y,38.8941362,-76.9085966
MLS Listing,,Townhouse,329 Constitution Ave NE,Washington,DC,20002,1450000,4,2.5,Capitol Hill,2541,1350,1905,6,571,,Active,,,https://www.redfin.com/DC/Washington/329-Constitution-Ave-NE-20002/home/9893707,BRIGHT MLS,DCDC2149952,N,Y,38.8918585,-77.0008241
MLS Listing,,Condo/Co-op,525 Water St SW #112,Washington,DC,20024,749000,2,2.0,R. L. A. SW,935,,2016,6,801,883,Active,,,https://www.redfin.com/DC/Washington/525-Water-St-SW-20024/unit-112/home/109255790,BRIGHT MLS,DCDC2148592,N,Y,38.8758716,-77.0205659
MLS Listing,,Multi-Family (2-4 Unit),722-724 Hamlin St NE,Washington,DC,20017,1650000,,,Brookland,4768,3030,1937,6,346,,Active,,,https://www.redfin.com/DC/Washington/722-724-Hamlin-St-NE-20017/home/184475986,BRIGHT MLS,DCDC2150226,N,Y,38.9276948,-76.99518
MLS Listing,,Multi-Family (2-4 Unit),717-719 Irving St NE,Washington,DC,20017,1650000,,,Brookland,4112,4247,1937,6,401,,Active,,,https://www.redfin.com/DC/Washington/717-719-Irving-St-NE-20017/home/179562986,BRIGHT MLS,DCDC2150232,N,Y,38.9281286,-76.995248
MLS Listing,,Single Family Residential,3818 22nd St NE,Washington,DC,20018,449500,3,1.0,Michigan Park,1320,4148,1928,6,341,,Active,,,https://www.redfin.com/DC/Washington/3818-22nd-St-NE-20018/home/10103053,BRIGHT MLS,DCDC2150228,N,Y,38.9370214,-76.9744548
MLS Listing,,Single Family Residential,2233 S St NE,Washington,DC,20002,799000,3,2.0,Woodridge,1243,4323,1938,6,643,,Active,,,https://www.redfin.com/DC/Washington/2233-S-St-NE-20002/home/10109732,BRIGHT MLS,DCDC2149466,N,Y,38.9138752,-76.9727633
MLS Listing,,Townhouse,5720 6th St NW,Washington,DC,20011,865000,4,3.5,Brightwood,2785,3915,1938,6,311,,Active,July-21-2024 02:00 PM,July-21-2024 04:00 PM,https://www.redfin.com/DC/Washington/5720-6th-St-NW-20011/home/10056356,BRIGHT MLS,DCDC2146330,N,Y,38.9595436,-77.0214756
MLS Listing,,Single Family Residential,408 44th St NE,Washington,DC,20019,1069000,3,1.0,Deanwood,1857,11204,1947,6,576,,Pre On-Market,,,https://www.redfin.com/DC/Washington/408-44th-St-NE-20019/home/12529921,BRIGHT MLS,DCDC2149720,N,Y,38.8953949,-76.9394819
MLS Listing,,Townhouse,835 5th St NE,Washington,DC,20002,875000,3,1.0,Old City 1,2204,1051,1908,6,397,,Pre On-Market,,,https://www.redfin.com/DC/Washington/835-5th-St-NE-20002/home/9896593,BRIGHT MLS,DCDC2150166,N,Y,38.9011805,-76.9992381
MLS Listing,,Townhouse,5104 Just St NE,Washington,DC,20019,419000,3,2.0,Deanwood,1215,2420,1944,6,345,,Active,,,https://www.redfin.com/DC/Washington/5104-Just-St-NE-20019/home/10126531,BRIGHT MLS,DCDC2148890,N,Y,38.9029115,-76.9265164
MLS Listing,,Condo/Co-op,4111 Connecticut Ave NW Ph 601,Washington,DC,20008,975000,2,2.0,CLEVELAND PARK,1373,,2023,6,710,588,Active,July-20-2024 01:00 PM,July-20-2024 03:00 PM,https://www.redfin.com/DC/Washington/4111-Connecticut-Ave-NW-20008/unit-601/home/185347057,BRIGHT MLS,DCDC2148760,N,Y,38.9426566,-77.0622595
MLS Listing,,Condo/Co-op,14 P St NW #303,Washington,DC,20001,439000,2,1.0,Old City 2,698,,2023,6,629,115,Active,July-21-2024 10:00 AM,July-21-2024 12:00 PM,https://www.redfin.com/DC/Washington/14-P-St-NW-20001/unit-303/home/188477827,BRIGHT MLS,DCDC2150156,N,Y,38.9094757,-77.0094286
MLS Listing,,Townhouse,45 Adams St NW,Washington,DC,20001,1349000,4,3.5,Ledroit Park,2482,2412,1908,6,544,,Active,July-21-2024 01:00 PM,July-21-2024 03:00 PM,https://www.redfin.com/DC/Washington/45-Adams-St-NW-20001/home/10050042,BRIGHT MLS,DCDC2149626,N,Y,38.9204552,-77.0106774
MLS Listing,,Townhouse,3723 Winfield Ln NW,Washington,DC,20007,1599000,3,3.5,Georgetown,2431,1555,1987,6,658,255,Active,July-21-2024 11:00 AM,July-21-2024 01:00 PM,https://www.redfin.com/DC/Washington/3723-Winfield-Ln-NW-20007/home/9932084,BRIGHT MLS,DCDC2148202,N,Y,38.9123602,-77.072838
MLS Listing,,Condo/Co-op,14 P St NW #203,Washington,DC,20001,379000,1,1.0,TRUXTON CIRCLE,584,,2023,6,649,95,Active,July-20-2024 10:00 AM,July-20-2024 12:00 PM,https://www.redfin.com/DC/Washington/14-P-St-NW-20001/unit-203/home/185380420,BRIGHT MLS,DCDC2150154,N,Y,38.9094757,-77.0094286
MLS Listing,,Townhouse,561 15th St SE,Washington,DC,20003,825000,2,2.0,Old City 1,1476,1080,1810,6,559,,Active,,,https://www.redfin.com/DC/Washington/561-15th-St-SE-20003/home/9917932,BRIGHT MLS,DCDC2149796,N,Y,38.881526,-76.9838979
MLS Listing,,Townhouse,1364 Perry Pl NW #1,Washington,DC,20010,949000,3,3.0,Columbia Heights,1600,,2024,6,593,323,Active,July-21-2024 02:00 PM,July-21-2024 04:00 PM,https://www.redfin.com/DC/Washington/1364-Perry-Pl-NW-20010/unit-1/home/191568579,BRIGHT MLS,DCDC2149640,N,Y,38.9358807,-77.0319293
MLS Listing,,Condo/Co-op,14 P St NW #403,Washington,DC,20001,599000,2,1.5,TRUXTON CIRCLE,836,,2023,6,717,129,Active,July-20-2024 10:00 AM,July-20-2024 12:00 PM,https://www.redfin.com/DC/Washington/14-P-St-NW-20001/unit-403/home/190701289,BRIGHT MLS,DCDC2149762,N,Y,38.9094757,-77.0094286
MLS Listing,,Condo/Co-op,14 P St NW #401,Washington,DC,20001,699000,3,2.0,TRUXTON CIRCLE,1147,,2023,6,609,129,Active,July-20-2024 10:00 AM,July-20-2024 12:00 PM,https://www.redfin.com/DC/Washington/14-P-St-NW-20001/unit-401/home/190701288,BRIGHT MLS,DCDC2149760,N,Y,38.9094757,-77.0094286
MLS Listing,,Condo/Co-op,1725 17th St NW #405,Washington,DC,20009,500000,2,2.0,Old City 2,950,,1917,6,526,1481,Active,,,https://www.redfin.com/DC/Washington/1725-17th-St-NW-20009/unit-405/home/12311136,BRIGHT MLS,DCDC2148808,N,Y,38.9135147,-77.0379101
MLS Listing,,Condo/Co-op,901 19th St NE Ph 1,Washington,DC,20002,650000,1,1.0,Trinidad,637,3560,2024,6,1020,209,Active,,,https://www.redfin.com/DC/Washington/901-19th-St-NE-20002/unit-1/home/191568350,BRIGHT MLS,DCDC2150138,N,Y,38.9022633,-76.9759654
MLS Listing,,Condo/Co-op,901 19th St NE #11,Washington,DC,20002,365000,1,1.0,Trinidad,637,3560,2024,6,573,209,Active,,,https://www.redfin.com/DC/Washington/901-19th-St-NE-20002/unit-11/home/191567997,BRIGHT MLS,DCDC2150122,N,Y,38.9022633,-76.9759654
MLS Listing,,Condo/Co-op,1020 Florida Ave NE #10,Washington,DC,20002,775000,3,3.0,H STREET CORRIDOR,1724,,2023,6,450,277,Active,,,https://www.redfin.com/DC/Washington/1020-Florida-Ave-NE-20002/unit-10/home/185583525,BRIGHT MLS,DCDC2149928,N,Y,38.9037813,-76.9920679
MLS Listing,,Townhouse,1343 Taylor St NW,Washington,DC,20011,1499999,4,3.5,Columbia Heights,2640,2770,1927,6,568,,Active,July-20-2024 11:00 AM,July-20-2024 01:00 PM,https://www.redfin.com/DC/Washington/1343-Taylor-St-NW-20011/home/10025419,BRIGHT MLS,DCDC2143376,N,Y,38.9409852,-77.0313491
MLS Listing,,Condo/Co-op,3162 Banneker Dr NE #3162,Washington,DC,20018,465000,3,3.0,Fort Lincoln,1914,,1978,6,243,439,Active,,,https://www.redfin.com/DC/Washington/3162-Banneker-Dr-NE-20018/unit-3162/home/10106958,BRIGHT MLS,DCDC2149938,N,Y,38.9253449,-76.9629403
MLS Listing,,Townhouse,1334 Belmont St NW #2,Washington,DC,20009,479999,1,1.0,Columbia Heights,670,,2008,6,716,233,Pre On-Market,,,https://www.redfin.com/DC/Washington/1334-Belmont-St-NW-20009/unit-2/home/28497853,BRIGHT MLS,DCDC2148636,N,Y,38.920959,-77.0311286
MLS Listing,,Single Family Residential,5410 Central Ave SE,Washington,DC,20019,499999,3,3.0,Deanwood,2714,4953,2005,6,184,,Active,,,https://www.redfin.com/DC/Washington/5410-Central-Ave-SE-20019/home/10318426,BRIGHT MLS,DCDC2150064,N,Y,38.8866481,-76.9225095
MLS Listing,,Condo/Co-op,1704 19th St NW #4,Washington,DC,20009,375000,1,1.0,Old City 2,451,,1885,6,831,217,Active,,,https://www.redfin.com/DC/Washington/1704-19th-St-NW-20009/unit-4/home/9059265,BRIGHT MLS,DCDC2150118,N,Y,38.9128745,-77.0438372
MLS Listing,,Townhouse,1380 E Capitol St NE,Washington,DC,20003,1269000,4,3.5,Old City 1,2376,1699,1919,6,534,,Active,,,https://www.redfin.com/DC/Washington/1380-E-Capitol-St-NE-20003/home/9913988,BRIGHT MLS,DCDC2150044,N,Y,38.890122,-76.98579
MLS Listing,,Townhouse,608 Burns St SE,Washington,DC,20019,385000,2,1.0,Fort Dupont Park,1152,2841,1950,6,334,,Active,,,https://www.redfin.com/DC/Washington/608-Burns-St-SE-20019/home/10140124,BRIGHT MLS,DCDC2150112,N,Y,38.8813547,-76.9435464
